VIN (1-10),County,City,State,Postal Code,Year,Make,Model,Type,Eligibility,Range,MSRP,Vehicle Location,longitude,latitude
KMHM34AC6P,King,Seattle,WA,98106,2023,HYUNDAI,IONIQ 6,Battery Electric Vehicle (BEV),Eligibility unknown as battery range has not been researched,0,0,POINT (-122.356145 47.52104),-122.356145,47.52104
JTDKARFP9H,Whatcom,Point Roberts,WA,98281,2017,TOYOTA,PRIUS PRIME,Plug-in Hybrid Electric Vehicle (PHEV),Not eligible due to low battery range,25,0,POINT (-123.0651 48.98823),-123.0651,48.98823
3FMTK3SU1M,Mason,Grapeview,WA,98546,2021,FORD,MUSTANG MACH-E,Battery Electric Vehicle (BEV),Eligibility unknown as battery range has not been researched,0,0,POINT (-122.9529423 47.3248964),-122.9529423,47.3248964
LYVBR0DL8K,Snohomish,Marysville,WA,98270,2019,VOLVO,XC60,Plug-in Hybrid Electric Vehicle (PHEV),Not eligible due to low battery range,17,52900,POINT (-122.17673 48.05542),-122.17673,48.05542
YV4BC0PL5H,King,Bellevue,WA,98027,2017,VOLVO,XC90,Plug-in Hybrid Electric Vehicle (PHEV),Not eligible due to low battery range,14,0,POINT (-122.03646 47.534065),-122.03646,47.534065
7SAYGDEE0P,King,Issaquah,WA,98027,2023,TESLA,MODEL Y,Battery Electric Vehicle (BEV),Eligibility unknown as battery range has not been researched,0,0,POINT (-122.03646 47.534065),-122.03646,47.534065
1FADP5CU7E,King,Sammamish,WA,98075,2014,FORD,C-MAX,Plug-in Hybrid Electric Vehicle (PHEV),Not eligible due to low battery range,19,0,POINT (-122.03309 47.58153),-122.03309,47.58153
7SAYGDEE9P,Snohomish,Bothell,WA,98012,2023,TESLA,MODEL Y,Battery Electric Vehicle (BEV),Eligibility unknown as battery range has not been researched,0,0,POINT (-122.1873 47.820245),-122.1873,47.820245
1G1FW6S03N,Kitsap,Bainbridge Island,WA,98110,2022,CHEVROLET,BOLT EV,Battery Electric Vehicle (BEV),Eligibility unknown as battery range has not been researched,0,0,POINT (-122.5235781 47.6293323),-122.5235781,47.6293323
5YJ3E1EA2P,Snohomish,Bothell,WA,98021,2023,TESLA,MODEL 3,Battery Electric Vehicle (BEV),Eligibility unknown as battery range has not been researched,0,0,POINT (-122.179458 47.802589),-122.179458,47.802589
WVWPR7AU1K,King,Maple Valley,WA,98038,2019,VOLKSWAGEN,E-GOLF,Battery Electric Vehicle (BEV),Clean Alternative Fuel Vehicle Eligible,125,0,POINT (-122.05191 47.357985),-122.05191,47.357985
5YJSA1E50N,Whitman,Pullman,WA,99163,2022,TESLA,MODEL S,Battery Electric Vehicle (BEV),Eligibility unknown as battery range has not been researched,0,0,POINT (-117.17912 46.730885),-117.17912,46.730885
JF2GTDNC6K,Snohomish,Bothell,WA,98021,2019,SUBARU,CROSSTREK,Plug-in Hybrid Electric Vehicle (PHEV),Not eligible due to low battery range,17,34995,POINT (-122.179458 47.802589),-122.179458,47.802589
JTDKAMFP2N,Thurston,Olympia,WA,98501,2022,TOYOTA,PRIUS PRIME,Plug-in Hybrid Electric Vehicle (PHEV),Not eligible due to low battery range,25,0,POINT (-122.89692 47.043535),-122.89692,47.043535
1G1FY6S09P,Snohomish,Everett,WA,98208,2023,CHEVROLET,BOLT EUV,Battery Electric Vehicle (BEV),Eligibility unknown as battery range has not been researched,0,0,POINT (-122.2247757 47.9156409),-122.2247757,47.9156409
3FMTK1RM7M,Pierce,Orting,WA,98360,2021,FORD,MUSTANG MACH-E,Battery Electric Vehicle (BEV),Eligibility unknown as battery range has not been researched,0,0,POINT (-122.2032237 47.0942956),-122.2032237,47.0942956
WBY1Z2C50G,King,Redmond,WA,98053,2016,BMW,I3,Battery Electric Vehicle (BEV),Clean Alternative Fuel Vehicle Eligible,81,0,POINT (-122.0222799 47.6958998),-122.0222799,47.6958998
JTMEB3FV8P,Pierce,Tacoma,WA,98445,2023,TOYOTA,RAV4 PRIME,Plug-in Hybrid Electric Vehicle (PHEV),Clean Alternative Fuel Vehicle Eligible,42,0,POINT (-122.40872 47.165675),-122.40872,47.165675
5YJ3E1EB0J,King,Issaquah,WA,98027,2018,TESLA,MODEL 3,Battery Electric Vehicle (BEV),Clean Alternative Fuel Vehicle Eligible,215,0,POINT (-122.03646 47.534065),-122.03646,47.534065
7SAXCBE66P,Clark,Vancouver,WA,98660,2023,TESLA,MODEL X,Battery Electric Vehicle (BEV),Eligibility unknown as battery range has not been researched,0,0,POINT (-122.675975 45.630465),-122.675975,45.630465
1G1RF6E43E,Skamania,Washougal,WA,98671,2014,CHEVROLET,VOLT,Plug-in Hybrid Electric Vehicle (PHEV),Clean Alternative Fuel Vehicle Eligible,38,0,POINT (-122.35465 45.58359),-122.35465,45.58359
JTDKARFP8H,Pierce,Tacoma,WA,98407,2017,TOYOTA,PRIUS PRIME,Plug-in Hybrid Electric Vehicle (PHEV),Not eligible due to low battery range,25,0,POINT (-122.5113356 47.2923828),-122.5113356,47.2923828
4JGDA6DB9H,King,Seatac,WA,98198,2017,MERCEDES-BENZ,GLE-CLASS,Plug-in Hybrid Electric Vehicle (PHEV),Not eligible due to low battery range,10,0,POINT (-122.3219166 47.4013897),-122.3219166,47.4013897
2C4RC1L7XM,King,Renton,WA,98057,2021,CHRYSLER,PACIFICA,Plug-in Hybrid Electric Vehicle (PHEV),Clean Alternative Fuel Vehicle Eligible,32,0,POINT (-122.21024 47.4797047),-122.21024,47.4797047
7SAYGDEF9N,Snohomish,Mukilteo,WA,98275,2022,TESLA,MODEL Y,Battery Electric Vehicle (BEV),Eligibility unknown as battery range has not been researched,0,0,POINT (-122.299965 47.94171),-122.299965,47.94171
7PDSGABA4P,Snohomish,Bothell,WA,98021,2023,RIVIAN,R1S,Battery Electric Vehicle (BEV),Eligibility unknown as battery range has not been researched,0,0,POINT (-122.179458 47.802589),-122.179458,47.802589
1G1RB6S54H,Walla Walla,College Place,WA,99324,2017,CHEVROLET,VOLT,Plug-in Hybrid Electric Vehicle (PHEV),Clean Alternative Fuel Vehicle Eligible,53,0,POINT (-118.38409 46.043895),-118.38409,46.043895
7PDSGABA4P,Yakima,Yakima,WA,98908,2023,RIVIAN,R1S,Battery Electric Vehicle (BEV),Eligibility unknown as battery range has not been researched,0,0,POINT (-120.6027202 46.5965625),-120.6027202,46.5965625
KNDC3DLC4P,Island,Camano Island,WA,98282,2023,KIA,EV6,Battery Electric Vehicle (BEV),Eligibility unknown as battery range has not been researched,0,0,POINT (-122.5310901 48.2192797),-122.5310901,48.2192797
5UXKT0C5XG,Pierce,Fircrest,WA,98466,2016,BMW,X5,Plug-in Hybrid Electric Vehicle (PHEV),Not eligible due to low battery range,14,0,POINT (-122.537565 47.231645),-122.537565,47.231645
5YJ3E1EB1K,Skagit,Anacortes,WA,98221,2019,TESLA,MODEL 3,Battery Electric Vehicle (BEV),Clean Alternative Fuel Vehicle Eligible,220,0,POINT (-122.615305 48.501275),-122.615305,48.501275
5YJXCDE29J,King,Mercer Island,WA,98040,2018,TESLA,MODEL X,Battery Electric Vehicle (BEV),Clean Alternative Fuel Vehicle Eligible,238,0,POINT (-122.2377542 47.582905),-122.2377542,47.582905
5YJYGDEE6L,Miami-Dade,Miami,FL,33131,2020,TESLA,MODEL Y,Battery Electric Vehicle (BEV),Clean Alternative Fuel Vehicle Eligible,291,0,POINT (-80.190645 25.765985),-80.190645,25.765985
5YJSA4H4XF,Franklin,Pasco,WA,99301,2015,TESLA,MODEL S,Battery Electric Vehicle (BEV),Clean Alternative Fuel Vehicle Eligible,208,0,POINT (-119.0982 46.232395),-119.0982,46.232395
5YJSA1H27F,Thurston,Olympia,WA,98501,2015,TESLA,MODEL S,Battery Electric Vehicle (BEV),Clean Alternative Fuel Vehicle Eligible,208,0,POINT (-122.89692 47.043535),-122.89692,47.043535
LYVBR0DL0J,Spokane,Spokane Valley,WA,99206,2018,VOLVO,XC60,Plug-in Hybrid Electric Vehicle (PHEV),Not eligible due to low battery range,17,52900,POINT (-117.24549 47.6534),-117.24549,47.6534
1FADP5CU6G,Thurston,Olympia,WA,98512,2016,FORD,C-MAX,Plug-in Hybrid Electric Vehicle (PHEV),Not eligible due to low battery range,19,0,POINT (-122.9131017 47.0135926),-122.9131017,47.0135926
KM8KNDAF9P,Lewis,Centralia,WA,98531,2023,HYUNDAI,IONIQ 5,Battery Electric Vehicle (BEV),Eligibility unknown as battery range has not been researched,0,0,POINT (-122.962555 46.716875),-122.962555,46.716875
5YJ3E1EC0L,Island,Camano Island,WA,98282,2020,TESLA,MODEL 3,Battery Electric Vehicle (BEV),Clean Alternative Fuel Vehicle Eligible,308,0,POINT (-122.5310901 48.2192797),-122.5310901,48.2192797
5YJXCDE25H,Spokane,Spokane,WA,99202,2017,TESLA,MODEL X,Battery Electric Vehicle (BEV),Clean Alternative Fuel Vehicle Eligible,200,0,POINT (-117.383045 47.661935),-117.383045,47.661935
5YJ3E1EB7N,Pierce,Buckley,WA,98321,2022,TESLA,MODEL 3,Battery Electric Vehicle (BEV),Eligibility unknown as battery range has not been researched,0,0,POINT (-122.029685 47.161465),-122.029685,47.161465
5YJYGDED9M,Snohomish,Lynnwood,WA,98087,2021,TESLA,MODEL Y,Battery Electric Vehicle (BEV),Eligibility unknown as battery range has not been researched,0,0,POINT (-122.2551991 47.8650827),-122.2551991,47.8650827
5YJSA1E26H,King,Bellevue,WA,98006,2017,TESLA,MODEL S,Battery Electric Vehicle (BEV),Clean Alternative Fuel Vehicle Eligible,210,0,POINT (-122.16937 47.571015),-122.16937,47.571015
1FTVW1EV5P,Chelan,Leavenworth,WA,98826,2023,FORD,F-150,Battery Electric Vehicle (BEV),Eligibility unknown as battery range has not been researched,0,0,POINT (-120.6619153 47.5970083),-120.6619153,47.5970083
3FMTK3SU9M,King,Carnation,WA,98014,2021,FORD,MUSTANG MACH-E,Battery Electric Vehicle (BEV),Eligibility unknown as battery range has not been researched,0,0,POINT (-121.9105947 47.6483005),-121.9105947,47.6483005
7SAXCDE5XP,King,Redmond,WA,98053,2023,TESLA,MODEL X,Battery Electric Vehicle (BEV),Eligibility unknown as battery range has not been researched,0,0,POINT (-122.0222799 47.6958998),-122.0222799,47.6958998
1N4AZ1CP4L,King,Redmond,WA,98053,2020,NISSAN,LEAF,Battery Electric Vehicle (BEV),Clean Alternative Fuel Vehicle Eligible,149,0,POINT (-122.0222799 47.6958998),-122.0222799,47.6958998
KNDJX3AE5G,San Juan,Eastsound,WA,98245,2016,KIA,SOUL,Battery Electric Vehicle (BEV),Clean Alternative Fuel Vehicle Eligible,93,31950,POINT (-122.907229 48.7016716),-122.907229,48.7016716
5YJYGAEE4M,Walla Walla,Walla Walla,WA,99362,2021,TESLA,MODEL Y,Battery Electric Vehicle (BEV),Eligibility unknown as battery range has not been researched,0,0,POINT (-118.34332 46.063985),-118.34332,46.063985
7SAYGDEE0N,Spokane,Spokane,WA,99205,2022,TESLA,MODEL Y,Battery Electric Vehicle (BEV),Eligibility unknown as battery range has not been researched,0,0,POINT (-117.42694 47.67946),-117.42694,47.67946
YV4ED3UR9N,Pierce,Tacoma,WA,98402,2022,VOLVO,XC40,Battery Electric Vehicle (BEV),Eligibility unknown as battery range has not been researched,0,0,POINT (-122.44131 47.25207),-122.44131,47.25207
7SAYGDEFXP,Skagit,Anacortes,WA,98221,2023,TESLA,MODEL Y,Battery Electric Vehicle (BEV),Eligibility unknown as battery range has not been researched,0,0,POINT (-122.615305 48.501275),-122.615305,48.501275
3FA6P0SU1E,King,Kent,WA,98030,2014,FORD,FUSION,Plug-in Hybrid Electric Vehicle (PHEV),Not eligible due to low battery range,19,0,POINT (-122.199755 47.37483),-122.199755,47.37483
1G1FZ6S09P,Pierce,Gig Harbor,WA,98335,2023,CHEVROLET,BOLT EUV,Battery Electric Vehicle (BEV),Eligibility unknown as battery range has not been researched,0,0,POINT (-122.5835454 47.3234488),-122.5835454,47.3234488
1C4JJXP69P,Island,Camano Island,WA,98282,2023,JEEP,WRANGLER,Plug-in Hybrid Electric Vehicle (PHEV),Not eligible due to low battery range,21,0,POINT (-122.5310901 48.2192797),-122.5310901,48.2192797
5UXTA6C04N,Snohomish,Edmonds,WA,98020,2022,BMW,X5,Plug-in Hybrid Electric Vehicle (PHEV),Clean Alternative Fuel Vehicle Eligible,30,0,POINT (-122.37507 47.80807),-122.37507,47.80807
3MW5P9J07N,King,Seatac,WA,98188,2022,BMW,330E,Plug-in Hybrid Electric Vehicle (PHEV),Not eligible due to low battery range,22,0,POINT (-122.29179 47.43473),-122.29179,47.43473
7SAYGDEE9P,Snohomish,Monroe,WA,98272,2023,TESLA,MODEL Y,Battery Electric Vehicle (BEV),Eligibility unknown as battery range has not been researched,0,0,POINT (-121.972215 47.85674),-121.972215,47.85674
5YJSA1H11E,Spokane,Spokane,WA,99217,2014,TESLA,MODEL S,Battery Electric Vehicle (BEV),Clean Alternative Fuel Vehicle Eligible,208,69900,POINT (-117.357575 47.68465),-117.357575,47.68465
3FMTK3SU8P,Spokane,Spokane,WA,99224,2023,FORD,MUSTANG MACH-E,Battery Electric Vehicle (BEV),Eligibility unknown as battery range has not been researched,0,0,POINT (-117.460225 47.64927),-117.460225,47.64927
1G1FW6S04H,Island,Langley,WA,98260,2017,CHEVROLET,BOLT EV,Battery Electric Vehicle (BEV),Clean Alternative Fuel Vehicle Eligible,238,0,POINT (-122.408015 48.03557),-122.408015,48.03557
5YJ3E1EC9N,Snohomish,Everett,WA,98203,2022,TESLA,MODEL 3,Battery Electric Vehicle (BEV),Eligibility unknown as battery range has not been researched,0,0,POINT (-122.213105 47.95479),-122.213105,47.95479
7SAYGDEE4N,Mason,Shelton,WA,98584,2022,TESLA,MODEL Y,Battery Electric Vehicle (BEV),Eligibility unknown as battery range has not been researched,0,0,POINT (-123.105305 47.211085),-123.105305,47.211085
7SAYGDEF6N,Snohomish,Marysville,WA,98270,2022,TESLA,MODEL Y,Battery Electric Vehicle (BEV),Eligibility unknown as battery range has not been researched,0,0,POINT (-122.17673 48.05542),-122.17673,48.05542
5YJ3E1EA7J,Benton,Kennewick,WA,99338,2018,TESLA,MODEL 3,Battery Electric Vehicle (BEV),Clean Alternative Fuel Vehicle Eligible,215,0,POINT (-119.1973001 46.1911488),-119.1973001,46.1911488
5YJ3E1EB1P,King,Seattle,WA,98121,2023,TESLA,MODEL 3,Battery Electric Vehicle (BEV),Eligibility unknown as battery range has not been researched,0,0,POINT (-122.344125 47.61546),-122.344125,47.61546
WA1AAAGE7N,Whatcom,Bellingham,WA,98225,2022,AUDI,E-TRON,Battery Electric Vehicle (BEV),Eligibility unknown as battery range has not been researched,0,0,POINT (-122.486115 48.761615),-122.486115,48.761615
5YJSA1CG3D,Snohomish,Bothell,WA,98012,2013,TESLA,MODEL S,Battery Electric Vehicle (BEV),Clean Alternative Fuel Vehicle Eligible,208,69900,POINT (-122.1873 47.820245),-122.1873,47.820245
5YJSA1E52M,Benton,Kennewick,WA,99336,2021,TESLA,MODEL S,Battery Electric Vehicle (BEV),Eligibility unknown as battery range has not been researched,0,0,POINT (-119.113535 46.204945),-119.113535,46.204945
5YJSA1E27J,Snohomish,Edmonds,WA,98026,2018,TESLA,MODEL S,Battery Electric Vehicle (BEV),Clean Alternative Fuel Vehicle Eligible,249,0,POINT (-122.335685 47.80372),-122.335685,47.80372
5YJ3E1EB9N,Pierce,Graham,WA,98338,2022,TESLA,MODEL 3,Battery Electric Vehicle (BEV),Eligibility unknown as battery range has not been researched,0,0,POINT (-122.2953401 47.0763961),-122.2953401,47.0763961
2C4RC1N76N,Snohomish,Snohomish,WA,98296,2022,CHRYSLER,PACIFICA,Plug-in Hybrid Electric Vehicle (PHEV),Clean Alternative Fuel Vehicle Eligible,32,0,POINT (-122.15134 47.8851158),-122.15134,47.8851158
5YJ3E1EB7L,Pierce,Gig Harbor,WA,98332,2020,TESLA,MODEL 3,Battery Electric Vehicle (BEV),Clean Alternative Fuel Vehicle Eligible,322,0,POINT (-122.589645 47.342345),-122.589645,47.342345
1G1FW6S05H,Kitsap,Bremerton,WA,98310,2017,CHEVROLET,BOLT EV,Battery Electric Vehicle (BEV),Clean Alternative Fuel Vehicle Eligible,238,0,POINT (-122.611365 47.575195),-122.611365,47.575195
7SAYGDEE8P,Benton,Kennewick,WA,99337,2023,TESLA,MODEL Y,Battery Electric Vehicle (BEV),Eligibility unknown as battery range has not been researched,0,0,POINT (-119.14533 46.187395),-119.14533,46.187395
5UXTS1C06M,Thurston,Lacey,WA,98503,2021,BMW,X3,Plug-in Hybrid Electric Vehicle (PHEV),Not eligible due to low battery range,17,0,POINT (-122.8285 47.03646),-122.8285,47.03646
1N4BZ0CP6G,King,Seattle,WA,98107,2016,NISSAN,LEAF,Battery Electric Vehicle (BEV),Clean Alternative Fuel Vehicle Eligible,84,0,POINT (-122.37815 47.66866),-122.37815,47.66866
7SAYGAEE2P,Pierce,Tacoma,WA,98422,2023,TESLA,MODEL Y,Battery Electric Vehicle (BEV),Eligibility unknown as battery range has not been researched,0,0,POINT (-122.38578 47.28971),-122.38578,47.28971
1G1FX6S07P,King,Seattle,WA,98116,2023,CHEVROLET,BOLT EV,Battery Electric Vehicle (BEV),Eligibility unknown as battery range has not been researched,0,0,POINT (-122.38679 47.56484),-122.38679,47.56484
1G1FW6S09H,Skamania,Carson,WA,98610,2017,CHEVROLET,BOLT EV,Battery Electric Vehicle (BEV),Clean Alternative Fuel Vehicle Eligible,238,0,POINT (-121.8239085 45.7428006),-121.8239085,45.7428006
7SAXCBE51N,Spokane,Spokane,WA,99224,2022,TESLA,MODEL X,Battery Electric Vehicle (BEV),Eligibility unknown as battery range has not been researched,0,0,POINT (-117.460225 47.64927),-117.460225,47.64927
1FT6W1EV6P,Chelan,Wenatchee,WA,98801,2023,FORD,F-150,Battery Electric Vehicle (BEV),Eligibility unknown as battery range has not been researched,0,0,POINT (-120.32009 47.42255),-120.32009,47.42255
WP0AB2Y13L,King,Seattle,WA,98103,2020,PORSCHE,TAYCAN,Battery Electric Vehicle (BEV),Clean Alternative Fuel Vehicle Eligible,203,0,POINT (-122.34301 47.659185),-122.34301,47.659185
KNDCR3LF7P,Kitsap,Port Orchard,WA,98367,2023,KIA,NIRO,Plug-in Hybrid Electric Vehicle (PHEV),Clean Alternative Fuel Vehicle Eligible,33,0,POINT (-122.6847073 47.50524),-122.6847073,47.50524
WA1K2BFZ9P,Grant,Mattawa,WA,99349,2023,AUDI,Q4,Battery Electric Vehicle (BEV),Eligibility unknown as battery range has not been researched,0,0,POINT (-119.901675 46.7377996),-119.901675,46.7377996
7SAYGDEE9P,King,Burien,WA,98146,2023,TESLA,MODEL Y,Battery Electric Vehicle (BEV),Eligibility unknown as battery range has not been researched,0,0,POINT (-122.355145 47.505655),-122.355145,47.505655
KNDCS3LF5P,King,Seattle,WA,98112,2023,KIA,NIRO,Plug-in Hybrid Electric Vehicle (PHEV),Clean Alternative Fuel Vehicle Eligible,33,0,POINT (-122.30764 47.62523),-122.30764,47.62523
WBA33AG08P,Pierce,Tacoma,WA,98407,2023,BMW,530E,Plug-in Hybrid Electric Vehicle (PHEV),Not eligible due to low battery range,18,0,POINT (-122.5113356 47.2923828),-122.5113356,47.2923828
5YJ3E1EC3M,King,Seattle,WA,98122,2021,TESLA,MODEL 3,Battery Electric Vehicle (BEV),Eligibility unknown as battery range has not been researched,0,0,POINT (-122.30839 47.610365),-122.30839,47.610365
1N4AZ0CP1F,Pierce,Tacoma,WA,98407,2015,NISSAN,LEAF,Battery Electric Vehicle (BEV),Clean Alternative Fuel Vehicle Eligible,84,0,POINT (-122.5113356 47.2923828),-122.5113356,47.2923828
YV4BR00L8M,King,Seattle,WA,98199,2021,VOLVO,XC90,Plug-in Hybrid Electric Vehicle (PHEV),Not eligible due to low battery range,18,0,POINT (-122.394185 47.639195),-122.394185,47.639195
YV4H600AXP,Snohomish,Everett,WA,98203,2023,VOLVO,XC90,Plug-in Hybrid Electric Vehicle (PHEV),Clean Alternative Fuel Vehicle Eligible,32,0,POINT (-122.213105 47.95479),-122.213105,47.95479
2C4RC1S72N,Lewis,Vader,WA,98593,2022,CHRYSLER,PACIFICA,Plug-in Hybrid Electric Vehicle (PHEV),Clean Alternative Fuel Vehicle Eligible,32,0,POINT (-122.954205 46.39965),-122.954205,46.39965
3FMTK2SU7N,Thurston,Tumwater,WA,98512,2022,FORD,MUSTANG MACH-E,Battery Electric Vehicle (BEV),Eligibility unknown as battery range has not been researched,0,0,POINT (-122.9131017 47.0135926),-122.9131017,47.0135926
1N4AZ0CP9F,Whatcom,Ferndale,WA,98248,2015,NISSAN,LEAF,Battery Electric Vehicle (BEV),Clean Alternative Fuel Vehicle Eligible,84,0,POINT (-122.6011039 48.85324),-122.6011039,48.85324
YV4BR0DM0N,Okanogan,Winthrop,WA,98862,2022,VOLVO,XC60,Plug-in Hybrid Electric Vehicle (PHEV),Not eligible due to low battery range,18,0,POINT (-120.1774093 48.4741766),-120.1774093,48.4741766
1G1FZ6S08K,Snohomish,Snohomish,WA,98296,2019,CHEVROLET,BOLT EV,Battery Electric Vehicle (BEV),Clean Alternative Fuel Vehicle Eligible,238,0,POINT (-122.15134 47.8851158),-122.15134,47.8851158
1G1RB6S5XH,Pierce,Buckley,WA,98321,2017,CHEVROLET,VOLT,Plug-in Hybrid Electric Vehicle (PHEV),Clean Alternative Fuel Vehicle Eligible,53,0,POINT (-122.029685 47.161465),-122.029685,47.161465
2C4RC1H75J,Pierce,Tacoma,WA,98421,2018,CHRYSLER,PACIFICA,Plug-in Hybrid Electric Vehicle (PHEV),Clean Alternative Fuel Vehicle Eligible,33,0,POINT (-122.40594 47.261725),-122.40594,47.261725
5YJ3E1EAXJ,King,Redmond,WA,98053,2018,TESLA,MODEL 3,Battery Electric Vehicle (BEV),Clean Alternative Fuel Vehicle Eligible,215,0,POINT (-122.0222799 47.6958998),-122.0222799,47.6958998
1N4BZ0CP0G,Snohomish,Woodway,WA,98020,2016,NISSAN,LEAF,Battery Electric Vehicle (BEV),Clean Alternative Fuel Vehicle Eligible,84,0,POINT (-122.37507 47.80807),-122.37507,47.80807
YV4H60DN7P,Spokane,Spokane,WA,99203,2023,VOLVO,XC60,Plug-in Hybrid Electric Vehicle (PHEV),Clean Alternative Fuel Vehicle Eligible,35,0,POINT (-117.425265 47.635365),-117.425265,47.635365
1N4AZ0CP6E,Clark,Battle Ground,WA,98604,2014,NISSAN,LEAF,Battery Electric Vehicle (BEV),Clean Alternative Fuel Vehicle Eligible,84,0,POINT (-122.53218 45.77945),-122.53218,45.77945
WBAJA9C59J,Snohomish,Mountlake Terrace,WA,98043,2018,BMW,530E,Plug-in Hybrid Electric Vehicle (PHEV),Not eligible due to low battery range,16,52650,POINT (-122.30842 47.78416),-122.30842,47.78416
1G1RB6E47E,King,Seattle,WA,98106,2014,CHEVROLET,VOLT,Plug-in Hybrid Electric Vehicle (PHEV),Clean Alternative Fuel Vehicle Eligible,38,0,POINT (-122.356145 47.52104),-122.356145,47.52104
JN1AZ0CP1C,King,Woodinville,WA,98072,2012,NISSAN,LEAF,Battery Electric Vehicle (BEV),Clean Alternative Fuel Vehicle Eligible,73,0,POINT (-122.151665 47.75855),-122.151665,47.75855
1FADP5CUXD,Clallam,Sequim,WA,98382,2013,FORD,C-MAX,Plug-in Hybrid Electric Vehicle (PHEV),Not eligible due to low battery range,19,0,POINT (-123.105015 48.08125),-123.105015,48.08125
JTMABABA8P,Whatcom,Bellingham,WA,98229,2023,SUBARU,SOLTERRA,Battery Electric Vehicle (BEV),Eligibility unknown as battery range has not been researched,0,0,POINT (-122.4569227 48.7470973),-122.4569227,48.7470973
5YJ3E1EA6P,King,Seattle,WA,98122,2023,TESLA,MODEL 3,Battery Electric Vehicle (BEV),Eligibility unknown as battery range has not been researched,0,0,POINT (-122.30839 47.610365),-122.30839,47.610365
7SAYGDEE7P,Pierce,Gig Harbor,WA,98335,2023,TESLA,MODEL Y,Battery Electric Vehicle (BEV),Eligibility unknown as battery range has not been researched,0,0,POINT (-122.5835454 47.3234488),-122.5835454,47.3234488
5YJ3E1EA7L,Mason,Belfair,WA,98528,2020,TESLA,MODEL 3,Battery Electric Vehicle (BEV),Clean Alternative Fuel Vehicle Eligible,266,0,POINT (-122.8551647 47.4495785),-122.8551647,47.4495785
1C4JJXP64M,Snohomish,Marysville,WA,98270,2021,JEEP,WRANGLER,Plug-in Hybrid Electric Vehicle (PHEV),Not eligible due to low battery range,25,0,POINT (-122.17673 48.05542),-122.17673,48.05542
7SAXCAE53P,King,Issaquah,WA,98029,2023,TESLA,MODEL X,Battery Electric Vehicle (BEV),Eligibility unknown as battery range has not been researched,0,0,POINT (-121.9993659 47.5484866),-121.9993659,47.5484866
2C4RC1S73P,King,Renton,WA,98057,2023,CHRYSLER,PACIFICA,Plug-in Hybrid Electric Vehicle (PHEV),Clean Alternative Fuel Vehicle Eligible,32,0,POINT (-122.21024 47.4797047),-122.21024,47.4797047
1G1RE6E45D,Snohomish,Everett,WA,98203,2013,CHEVROLET,VOLT,Plug-in Hybrid Electric Vehicle (PHEV),Clean Alternative Fuel Vehicle Eligible,38,0,POINT (-122.213105 47.95479),-122.213105,47.95479
5YJ3E1EB6J,King,Kirkland,WA,98033,2018,TESLA,MODEL 3,Battery Electric Vehicle (BEV),Clean Alternative Fuel Vehicle Eligible,215,0,POINT (-122.20264 47.6785),-122.20264,47.6785
5YJSA1E41J,King,Woodinville,WA,98072,2018,TESLA,MODEL S,Battery Electric Vehicle (BEV),Clean Alternative Fuel Vehicle Eligible,249,0,POINT (-122.151665 47.75855),-122.151665,47.75855
5YJ3E1EA6P,King,Bellevue,WA,98005,2023,TESLA,MODEL 3,Battery Electric Vehicle (BEV),Eligibility unknown as battery range has not been researched,0,0,POINT (-122.16085 47.624515),-122.16085,47.624515
1V2WNPE85P,Pierce,Bonney Lake,WA,98391,2023,VOLKSWAGEN,ID.4,Battery Electric Vehicle (BEV),Eligibility unknown as battery range has not been researched,0,0,POINT (-122.183805 47.18062),-122.183805,47.18062
5YJ3E1EAXK,Snohomish,Bothell,WA,98012,2019,TESLA,MODEL 3,Battery Electric Vehicle (BEV),Clean Alternative Fuel Vehicle Eligible,220,0,POINT (-122.1873 47.820245),-122.1873,47.820245
1N4AZ1CPXK,Snohomish,Monroe,WA,98272,2019,NISSAN,LEAF,Battery Electric Vehicle (BEV),Clean Alternative Fuel Vehicle Eligible,150,0,POINT (-121.972215 47.85674),-121.972215,47.85674
KNDCD3LD6N,Pierce,Spanaway,WA,98387,2022,KIA,NIRO,Plug-in Hybrid Electric Vehicle (PHEV),Not eligible due to low battery range,26,0,POINT (-122.435115 47.1045),-122.435115,47.1045
5YJ3E1EB8M,King,Enumclaw,WA,98022,2021,TESLA,MODEL 3,Battery Electric Vehicle (BEV),Eligibility unknown as battery range has not been researched,0,0,POINT (-121.98953 47.20347),-121.98953,47.20347
WAUUPBFF5G,Whatcom,Blaine,WA,98230,2016,AUDI,A3,Plug-in Hybrid Electric Vehicle (PHEV),Not eligible due to low battery range,16,0,POINT (-122.74499 48.99505),-122.74499,48.99505
WBA7J2C36H,Pierce,South Hill,WA,98375,2017,BMW,740E,Plug-in Hybrid Electric Vehicle (PHEV),Not eligible due to low battery range,14,89100,POINT (-122.3085456 47.1042426),-122.3085456,47.1042426
5YJ3E1EB7N,Spokane,Spokane,WA,99208,2022,TESLA,MODEL 3,Battery Electric Vehicle (BEV),Eligibility unknown as battery range has not been researched,0,0,POINT (-117.40725 47.718625),-117.40725,47.718625
3FA6P0PU1F,King,Auburn,WA,98002,2015,FORD,FUSION,Plug-in Hybrid Electric Vehicle (PHEV),Not eligible due to low battery range,19,0,POINT (-122.222855 47.305065),-122.222855,47.305065
5YJ3E1EA3P,Pierce,Bonney Lake,WA,98391,2023,TESLA,MODEL 3,Battery Electric Vehicle (BEV),Eligibility unknown as battery range has not been researched,0,0,POINT (-122.183805 47.18062),-122.183805,47.18062
7SAYGDEE9P,King,Carnation,WA,98014,2023,TESLA,MODEL Y,Battery Electric Vehicle (BEV),Eligibility unknown as battery range has not been researched,0,0,POINT (-121.9105947 47.6483005),-121.9105947,47.6483005
5UX43EU01R,King,Renton,WA,98059,2024,BMW,X5,Plug-in Hybrid Electric Vehicle (PHEV),Clean Alternative Fuel Vehicle Eligible,39,0,POINT (-122.15734 47.487175),-122.15734,47.487175
5YJ3E1EB4K,Pierce,Tacoma,WA,98422,2019,TESLA,MODEL 3,Battery Electric Vehicle (BEV),Clean Alternative Fuel Vehicle Eligible,220,0,POINT (-122.38578 47.28971),-122.38578,47.28971
JTMAB3FV9M,Thurston,Tumwater,WA,98512,2021,TOYOTA,RAV4 PRIME,Plug-in Hybrid Electric Vehicle (PHEV),Clean Alternative Fuel Vehicle Eligible,42,0,POINT (-122.9131017 47.0135926),-122.9131017,47.0135926
KNDC34LB8N,Thurston,Olympia,WA,98513,2022,KIA,EV6,Battery Electric Vehicle (BEV),Eligibility unknown as battery range has not been researched,0,0,POINT (-122.817545 46.98876),-122.817545,46.98876
2C4RC1N72J,Pierce,Puyallup,WA,98373,2018,CHRYSLER,PACIFICA,Plug-in Hybrid Electric Vehicle (PHEV),Clean Alternative Fuel Vehicle Eligible,33,0,POINT (-122.2987976 47.13795),-122.2987976,47.13795
JTMFB3FV1M,Skagit,Anacortes,WA,98221,2021,TOYOTA,RAV4 PRIME,Plug-in Hybrid Electric Vehicle (PHEV),Clean Alternative Fuel Vehicle Eligible,42,0,POINT (-122.615305 48.501275),-122.615305,48.501275
5YJ3E1EAXP,Pierce,Tacoma,WA,98409,2023,TESLA,MODEL 3,Battery Electric Vehicle (BEV),Eligibility unknown as battery range has not been researched,0,0,POINT (-122.47913 47.2198),-122.47913,47.2198
5YJSA1E23L,Benton,Richland,WA,99354,2020,TESLA,MODEL S,Battery Electric Vehicle (BEV),Clean Alternative Fuel Vehicle Eligible,330,0,POINT (-119.28753 46.29747),-119.28753,46.29747
1G1RA6S59H,Snohomish,Lynnwood,WA,98037,2017,CHEVROLET,VOLT,Plug-in Hybrid Electric Vehicle (PHEV),Clean Alternative Fuel Vehicle Eligible,53,0,POINT (-122.297265 47.84182),-122.297265,47.84182
1G1RB6E47D,Skagit,La Conner,WA,98257,2013,CHEVROLET,VOLT,Plug-in Hybrid Electric Vehicle (PHEV),Clean Alternative Fuel Vehicle Eligible,38,0,POINT (-122.5135345 48.3829111),-122.5135345,48.3829111
WA1F2AFY2M,Whatcom,Bellingham,WA,98225,2021,AUDI,Q5 E,Plug-in Hybrid Electric Vehicle (PHEV),Not eligible due to low battery range,18,0,POINT (-122.486115 48.761615),-122.486115,48.761615
5YJYGDEE8M,Pierce,Tacoma,WA,98407,2021,TESLA,MODEL Y,Battery Electric Vehicle (BEV),Eligibility unknown as battery range has not been researched,0,0,POINT (-122.5113356 47.2923828),-122.5113356,47.2923828
7SAYGDEE3P,Pierce,Tacoma,WA,98422,2023,TESLA,MODEL Y,Battery Electric Vehicle (BEV),Eligibility unknown as battery range has not been researched,0,0,POINT (-122.38578 47.28971),-122.38578,47.28971
WVGUNPE2XM,Pierce,Tacoma,WA,98406,2021,VOLKSWAGEN,ID.4,Battery Electric Vehicle (BEV),Eligibility unknown as battery range has not been researched,0,0,POINT (-122.490985 47.26365),-122.490985,47.26365
7FCTGAAA5N,Snohomish,Bothell,WA,98012,2022,RIVIAN,R1T,Battery Electric Vehicle (BEV),Eligibility unknown as battery range has not been researched,0,0,POINT (-122.1873 47.820245),-122.1873,47.820245
1N4AZ0CP5F,Kitsap,Bremerton,WA,98337,2015,NISSAN,LEAF,Battery Electric Vehicle (BEV),Clean Alternative Fuel Vehicle Eligible,84,0,POINT (-122.635905 47.57097),-122.635905,47.57097
5YJ3E1EA0P,Benton,Prosser,WA,99350,2023,TESLA,MODEL 3,Battery Electric Vehicle (BEV),Eligibility unknown as battery range has not been researched,0,0,POINT (-119.769315 46.204995),-119.769315,46.204995
5YJXCBE20G,King,Bellevue,WA,98006,2016,TESLA,MODEL X,Battery Electric Vehicle (BEV),Clean Alternative Fuel Vehicle Eligible,200,0,POINT (-122.16937 47.571015),-122.16937,47.571015
1C4JJXR69P,Snohomish,Lynnwood,WA,98037,2023,JEEP,WRANGLER,Plug-in Hybrid Electric Vehicle (PHEV),Not eligible due to low battery range,21,0,POINT (-122.297265 47.84182),-122.297265,47.84182
1C4RJXR66R,Whatcom,Sumas,WA,98295,2024,JEEP,WRANGLER,Plug-in Hybrid Electric Vehicle (PHEV),Not eligible due to low battery range,21,0,POINT (-122.26024 48.99634),-122.26024,48.99634
1G1FX6S02H,Snohomish,Edmonds,WA,98026,2017,CHEVROLET,BOLT EV,Battery Electric Vehicle (BEV),Clean Alternative Fuel Vehicle Eligible,238,0,POINT (-122.335685 47.80372),-122.335685,47.80372
5YJ3E1EB9P,Snohomish,Lake Stevens,WA,98258,2023,TESLA,MODEL 3,Battery Electric Vehicle (BEV),Eligibility unknown as battery range has not been researched,0,0,POINT (-122.112265 48.0047),-122.112265,48.0047
3FA6P0PU7E,Skagit,Anacortes,WA,98221,2014,FORD,FUSION,Plug-in Hybrid Electric Vehicle (PHEV),Not eligible due to low battery range,19,0,POINT (-122.615305 48.501275),-122.615305,48.501275
7SAYGDEEXP,Snohomish,Bothell,WA,98021,2023,TESLA,MODEL Y,Battery Electric Vehicle (BEV),Eligibility unknown as battery range has not been researched,0,0,POINT (-122.179458 47.802589),-122.179458,47.802589
5YJ3E1EA3P,King,Seattle,WA,98115,2023,TESLA,MODEL 3,Battery Electric Vehicle (BEV),Eligibility unknown as battery range has not been researched,0,0,POINT (-122.3185 47.67949),-122.3185,47.67949
7SAYGDEE5P,King,Mercer Island,WA,98040,2023,TESLA,MODEL Y,Battery Electric Vehicle (BEV),Eligibility unknown as battery range has not been researched,0,0,POINT (-122.2377542 47.582905),-122.2377542,47.582905
1N4AZ0CP2D,Pierce,Gig Harbor,WA,98332,2013,NISSAN,LEAF,Battery Electric Vehicle (BEV),Clean Alternative Fuel Vehicle Eligible,75,0,POINT (-122.589645 47.342345),-122.589645,47.342345
7SAYGDEE7P,Snohomish,Lynnwood,WA,98087,2023,TESLA,MODEL Y,Battery Electric Vehicle (BEV),Eligibility unknown as battery range has not been researched,0,0,POINT (-122.2551991 47.8650827),-122.2551991,47.8650827
2C4RC1L74M,King,Renton,WA,98057,2021,CHRYSLER,PACIFICA,Plug-in Hybrid Electric Vehicle (PHEV),Clean Alternative Fuel Vehicle Eligible,32,0,POINT (-122.21024 47.4797047),-122.21024,47.4797047
KNDCR3L14P,Snohomish,Bothell,WA,98012,2023,KIA,NIRO,Battery Electric Vehicle (BEV),Eligibility unknown as battery range has not been researched,0,0,POINT (-122.1873 47.820245),-122.1873,47.820245
5YJYGDEE9L,Pierce,Bonney Lake,WA,98391,2020,TESLA,MODEL Y,Battery Electric Vehicle (BEV),Clean Alternative Fuel Vehicle Eligible,291,0,POINT (-122.183805 47.18062),-122.183805,47.18062
5YJ3E1EA7L,Santa Clara,San Jose,CA,95131,2020,TESLA,MODEL 3,Battery Electric Vehicle (BEV),Clean Alternative Fuel Vehicle Eligible,266,0,POINT (-121.87628 37.38175),-121.87628,37.38175
1FMCU0EZ9N,Walla Walla,College Place,WA,99324,2022,FORD,ESCAPE,Plug-in Hybrid Electric Vehicle (PHEV),Clean Alternative Fuel Vehicle Eligible,38,0,POINT (-118.38409 46.043895),-118.38409,46.043895
KM8KRDAF8P,King,Auburn,WA,98001,2023,HYUNDAI,IONIQ 5,Battery Electric Vehicle (BEV),Eligibility unknown as battery range has not been researched,0,0,POINT (-122.2849393 47.3384055),-122.2849393,47.3384055
5LMYJ8XY9M,Pierce,Spanaway,WA,98387,2021,LINCOLN,AVIATOR,Plug-in Hybrid Electric Vehicle (PHEV),Not eligible due to low battery range,21,0,POINT (-122.435115 47.1045),-122.435115,47.1045
1N4AZ0CP1D,Snohomish,Snohomish,WA,98290,2013,NISSAN,LEAF,Battery Electric Vehicle (BEV),Clean Alternative Fuel Vehicle Eligible,75,0,POINT (-122.091505 47.915555),-122.091505,47.915555
WA1M2BFZ9P,Pierce,Lakebay,WA,98349,2023,AUDI,Q4,Battery Electric Vehicle (BEV),Eligibility unknown as battery range has not been researched,0,0,POINT (-122.7658848 47.2739449),-122.7658848,47.2739449
7SAYGDEE6P,King,Seattle,WA,98117,2023,TESLA,MODEL Y,Battery Electric Vehicle (BEV),Eligibility unknown as battery range has not been researched,0,0,POINT (-122.37275 47.68968),-122.37275,47.68968
5YJ3E1EAXP,King,Seattle,WA,98199,2023,TESLA,MODEL 3,Battery Electric Vehicle (BEV),Eligibility unknown as battery range has not been researched,0,0,POINT (-122.394185 47.639195),-122.394185,47.639195
1N4AZ1BV5P,Benton,Richland,WA,99354,2023,NISSAN,LEAF,Battery Electric Vehicle (BEV),Eligibility unknown as battery range has not been researched,0,0,POINT (-119.28753 46.29747),-119.28753,46.29747
KNDCM3LD8J,King,Vashon,WA,98070,2018,KIA,NIRO,Plug-in Hybrid Electric Vehicle (PHEV),Not eligible due to low battery range,26,0,POINT (-122.46049 47.44873),-122.46049,47.44873
5UXKT0C37H,King,Issaquah,WA,98027,2017,BMW,X5,Plug-in Hybrid Electric Vehicle (PHEV),Not eligible due to low battery range,14,0,POINT (-122.03646 47.534065),-122.03646,47.534065
1G1RC6S54H,Grays Harbor,Aberdeen,WA,98520,2017,CHEVROLET,VOLT,Plug-in Hybrid Electric Vehicle (PHEV),Clean Alternative Fuel Vehicle Eligible,53,0,POINT (-123.8206 46.97789),-123.8206,46.97789
JTDKARFP2J,King,Enumclaw,WA,98022,2018,TOYOTA,PRIUS PRIME,Plug-in Hybrid Electric Vehicle (PHEV),Not eligible due to low battery range,25,0,POINT (-121.98953 47.20347),-121.98953,47.20347
5YJ3E1EB7K,Island,Camano Island,WA,98282,2019,TESLA,MODEL 3,Battery Electric Vehicle (BEV),Clean Alternative Fuel Vehicle Eligible,220,0,POINT (-122.5310901 48.2192797),-122.5310901,48.2192797
7SAYGAEE4N,King,Maple Valley,WA,98038,2022,TESLA,MODEL Y,Battery Electric Vehicle (BEV),Eligibility unknown as battery range has not been researched,0,0,POINT (-122.05191 47.357985),-122.05191,47.357985
50EA1TEA5P,King,Renton,WA,98057,2023,LUCID,AIR,Battery Electric Vehicle (BEV),Eligibility unknown as battery range has not been researched,0,0,POINT (-122.21024 47.4797047),-122.21024,47.4797047
WA1VAAGE9M,Kitsap,Poulsbo,WA,98370,2021,AUDI,E-TRON,Battery Electric Vehicle (BEV),Eligibility unknown as battery range has not been researched,0,0,POINT (-122.64177 47.737525),-122.64177,47.737525
1V2GNPE83P,Whitman,Colton,WA,99113,2023,VOLKSWAGEN,ID.4,Battery Electric Vehicle (BEV),Eligibility unknown as battery range has not been researched,0,0,POINT (-117.12633 46.566005),-117.12633,46.566005
1N4CZ1CVXP,Pierce,Graham,WA,98338,2023,NISSAN,LEAF,Battery Electric Vehicle (BEV),Eligibility unknown as battery range has not been researched,0,0,POINT (-122.2953401 47.0763961),-122.2953401,47.0763961
7SAYGDEF0N,Whatcom,Lynden,WA,98264,2022,TESLA,MODEL Y,Battery Electric Vehicle (BEV),Eligibility unknown as battery range has not been researched,0,0,POINT (-122.4584536 48.9461196),-122.4584536,48.9461196
5YJ3E1EA3P,Pierce,Puyallup,WA,98372,2023,TESLA,MODEL 3,Battery Electric Vehicle (BEV),Eligibility unknown as battery range has not been researched,0,0,POINT (-122.28718 47.190465),-122.28718,47.190465
1G1FX6S02P,Asotin,Clarkston,WA,99403,2023,CHEVROLET,BOLT EV,Battery Electric Vehicle (BEV),Eligibility unknown as battery range has not been researched,0,0,POINT (-117.045685 46.4163),-117.045685,46.4163
7FCTGAAA9P,Chelan,Wenatchee,WA,98801,2023,RIVIAN,R1T,Battery Electric Vehicle (BEV),Eligibility unknown as battery range has not been researched,0,0,POINT (-120.32009 47.42255),-120.32009,47.42255
2C4RC1L70M,King,Renton,WA,98057,2021,CHRYSLER,PACIFICA,Plug-in Hybrid Electric Vehicle (PHEV),Clean Alternative Fuel Vehicle Eligible,32,0,POINT (-122.21024 47.4797047),-122.21024,47.4797047
JN1AZ0CP4B,San Juan,Friday Harbor,WA,98250,2011,NISSAN,LEAF,Battery Electric Vehicle (BEV),Clean Alternative Fuel Vehicle Eligible,73,0,POINT (-123.022255 48.531355),-123.022255,48.531355
1N4AZ0CP2D,Snohomish,Mukilteo,WA,98275,2013,NISSAN,LEAF,Battery Electric Vehicle (BEV),Clean Alternative Fuel Vehicle Eligible,75,0,POINT (-122.299965 47.94171),-122.299965,47.94171
7SAYGDEE1N,Snohomish,Lake Stevens,WA,98258,2022,TESLA,MODEL Y,Battery Electric Vehicle (BEV),Eligibility unknown as battery range has not been researched,0,0,POINT (-122.112265 48.0047),-122.112265,48.0047
KNDCC3LD6N,Pierce,Tacoma,WA,98445,2022,KIA,NIRO,Plug-in Hybrid Electric Vehicle (PHEV),Not eligible due to low battery range,26,0,POINT (-122.40872 47.165675),-122.40872,47.165675
5YJSA1E55N,Clark,Brush Prairie,WA,98606,2022,TESLA,MODEL S,Battery Electric Vehicle (BEV),Eligibility unknown as battery range has not been researched,0,0,POINT (-122.5485715 45.7336587),-122.5485715,45.7336587
5YJXCAE26J,Snohomish,Lynnwood,WA,98036,2018,TESLA,MODEL X,Battery Electric Vehicle (BEV),Clean Alternative Fuel Vehicle Eligible,238,0,POINT (-122.316675 47.819365),-122.316675,47.819365
7SAYGDEF3N,King,Maple Valley,WA,98038,2022,TESLA,MODEL Y,Battery Electric Vehicle (BEV),Eligibility unknown as battery range has not been researched,0,0,POINT (-122.05191 47.357985),-122.05191,47.357985
1N4AZ1BV3M,King,Seattle,WA,98115,2021,NISSAN,LEAF,Battery Electric Vehicle (BEV),Eligibility unknown as battery range has not been researched,0,0,POINT (-122.3185 47.67949),-122.3185,47.67949
5YJ3E1EA9J,King,Sammamish,WA,98029,2018,TESLA,MODEL 3,Battery Electric Vehicle (BEV),Clean Alternative Fuel Vehicle Eligible,215,0,POINT (-121.9993659 47.5484866),-121.9993659,47.5484866
5YJ3E1EB1N,Whatcom,Bellingham,WA,98225,2022,TESLA,MODEL 3,Battery Electric Vehicle (BEV),Eligibility unknown as battery range has not been researched,0,0,POINT (-122.486115 48.761615),-122.486115,48.761615
7SAYGDEE8P,King,Bellevue,WA,98006,2023,TESLA,MODEL Y,Battery Electric Vehicle (BEV),Eligibility unknown as battery range has not been researched,0,0,POINT (-122.16937 47.571015),-122.16937,47.571015
5YJ3E1EA2P,Clark,Ridgefield,WA,98642,2023,TESLA,MODEL 3,Battery Electric Vehicle (BEV),Eligibility unknown as battery range has not been researched,0,0,POINT (-122.74291 45.818445),-122.74291,45.818445
1V2FMPE86P,King,Seattle,WA,98101,2023,VOLKSWAGEN,ID.4,Battery Electric Vehicle (BEV),Eligibility unknown as battery range has not been researched,0,0,POINT (-122.335345 47.61079),-122.335345,47.61079
1N4AZ1BV0N,Whatcom,Bellingham,WA,98229,2022,NISSAN,LEAF,Battery Electric Vehicle (BEV),Eligibility unknown as battery range has not been researched,0,0,POINT (-122.4569227 48.7470973),-122.4569227,48.7470973
1G1FW6S06H,Klickitat,Husum,WA,98672,2017,CHEVROLET,BOLT EV,Battery Electric Vehicle (BEV),Clean Alternative Fuel Vehicle Eligible,238,0,POINT (-121.48347 45.72977),-121.48347,45.72977
5YJ3E1EB7N,King,Seattle,WA,98102,2022,TESLA,MODEL 3,Battery Electric Vehicle (BEV),Eligibility unknown as battery range has not been researched,0,0,POINT (-122.32226 47.64058),-122.32226,47.64058
1FTVW1EL6N,Mason,Allyn,WA,98524,2022,FORD,F-150,Battery Electric Vehicle (BEV),Eligibility unknown as battery range has not been researched,0,0,POINT (-122.8386266 47.3819798),-122.8386266,47.3819798
5YJ3E1EB2N,King,Seattle,WA,98133,2022,TESLA,MODEL 3,Battery Electric Vehicle (BEV),Eligibility unknown as battery range has not been researched,0,0,POINT (-122.34584 47.76726),-122.34584,47.76726
1G1FY6S09L,Klickitat,White Salmon,WA,98672,2020,CHEVROLET,BOLT EV,Battery Electric Vehicle (BEV),Clean Alternative Fuel Vehicle Eligible,259,0,POINT (-121.48347 45.72977),-121.48347,45.72977
7SAYGDEF9N,Clark,Brush Prairie,WA,98606,2022,TESLA,MODEL Y,Battery Electric Vehicle (BEV),Eligibility unknown as battery range has not been researched,0,0,POINT (-122.5485715 45.7336587),-122.5485715,45.7336587
5YJ3E1EA3K,Snohomish,Lynnwood,WA,98037,2019,TESLA,MODEL 3,Battery Electric Vehicle (BEV),Clean Alternative Fuel Vehicle Eligible,220,0,POINT (-122.297265 47.84182),-122.297265,47.84182
5YJYGDEE2M,King,Sammamish,WA,98075,2021,TESLA,MODEL Y,Battery Electric Vehicle (BEV),Eligibility unknown as battery range has not been researched,0,0,POINT (-122.03309 47.58153),-122.03309,47.58153
5YJ3E1EA3P,King,Seattle,WA,98115,2023,TESLA,MODEL 3,Battery Electric Vehicle (BEV),Eligibility unknown as battery range has not been researched,0,0,POINT (-122.3185 47.67949),-122.3185,47.67949
5UXTA6C06N,Benton,Richland,WA,99352,2022,BMW,X5,Plug-in Hybrid Electric Vehicle (PHEV),Clean Alternative Fuel Vehicle Eligible,30,0,POINT (-119.2952071 46.272495),-119.2952071,46.272495
5YJ3E1EB5K,Pierce,Tacoma,WA,98444,2019,TESLA,MODEL 3,Battery Electric Vehicle (BEV),Clean Alternative Fuel Vehicle Eligible,220,0,POINT (-122.43827 47.153995),-122.43827,47.153995
1N4AZ0CP5F,Thurston,Tumwater,WA,98512,2015,NISSAN,LEAF,Battery Electric Vehicle (BEV),Clean Alternative Fuel Vehicle Eligible,84,0,POINT (-122.9131017 47.0135926),-122.9131017,47.0135926
7SAYGDEF2N,King,Renton,WA,98059,2022,TESLA,MODEL Y,Battery Electric Vehicle (BEV),Eligibility unknown as battery range has not been researched,0,0,POINT (-122.15734 47.487175),-122.15734,47.487175
JA4J24A53J,San Juan,Eastsound,WA,98245,2018,MITSUBISHI,OUTLANDER,Plug-in Hybrid Electric Vehicle (PHEV),Not eligible due to low battery range,22,0,POINT (-122.907229 48.7016716),-122.907229,48.7016716
WVWKR7AU1K,King,Auburn,WA,98001,2019,VOLKSWAGEN,E-GOLF,Battery Electric Vehicle (BEV),Clean Alternative Fuel Vehicle Eligible,125,0,POINT (-122.2849393 47.3384055),-122.2849393,47.3384055
1G1RB6E48D,Pierce,Gig Harbor,WA,98335,2013,CHEVROLET,VOLT,Plug-in Hybrid Electric Vehicle (PHEV),Clean Alternative Fuel Vehicle Eligible,38,0,POINT (-122.5835454 47.3234488),-122.5835454,47.3234488
7SAYGDEF4N,Snohomish,Lynnwood,WA,98087,2022,TESLA,MODEL Y,Battery Electric Vehicle (BEV),Eligibility unknown as battery range has not been researched,0,0,POINT (-122.2551991 47.8650827),-122.2551991,47.8650827
KNDJX3AE7G,Spokane,Deer Park,WA,99006,2016,KIA,SOUL,Battery Electric Vehicle (BEV),Clean Alternative Fuel Vehicle Eligible,93,31950,POINT (-117.47501 47.956285),-117.47501,47.956285
5YJYGAEE0M,King,Seattle,WA,98105,2021,TESLA,MODEL Y,Battery Electric Vehicle (BEV),Eligibility unknown as battery range has not been researched,0,0,POINT (-122.319115 47.66132),-122.319115,47.66132
1G1RC6S56H,Pacific,Ilwaco,WA,98624,2017,CHEVROLET,VOLT,Plug-in Hybrid Electric Vehicle (PHEV),Clean Alternative Fuel Vehicle Eligible,53,0,POINT (-124.038905 46.30883),-124.038905,46.30883
1G1RC6S58H,Thurston,Olympia,WA,98506,2017,CHEVROLET,VOLT,Plug-in Hybrid Electric Vehicle (PHEV),Clean Alternative Fuel Vehicle Eligible,53,0,POINT (-122.8874781 47.0519573),-122.8874781,47.0519573
5YJSA1DN1C,Skagit,Anacortes,WA,98221,2012,TESLA,MODEL S,Battery Electric Vehicle (BEV),Clean Alternative Fuel Vehicle Eligible,265,59900,POINT (-122.615305 48.501275),-122.615305,48.501275
5YJ3E1EA7J,King,Bellevue,WA,98006,2018,TESLA,MODEL 3,Battery Electric Vehicle (BEV),Clean Alternative Fuel Vehicle Eligible,215,0,POINT (-122.16937 47.571015),-122.16937,47.571015
JTDKARFP5J,Pierce,Tacoma,WA,98407,2018,TOYOTA,PRIUS PRIME,Plug-in Hybrid Electric Vehicle (PHEV),Not eligible due to low battery range,25,0,POINT (-122.5113356 47.2923828),-122.5113356,47.2923828
1C4RJYB68N,Pierce,Puyallup,WA,98375,2022,JEEP,GRAND CHEROKEE,Plug-in Hybrid Electric Vehicle (PHEV),Not eligible due to low battery range,25,0,POINT (-122.3085456 47.1042426),-122.3085456,47.1042426
1V2GNPE86P,King,Kent,WA,98042,2023,VOLKSWAGEN,ID.4,Battery Electric Vehicle (BEV),Eligibility unknown as battery range has not been researched,0,0,POINT (-122.111625 47.36078),-122.111625,47.36078
5YJ3E1EBXN,King,Maple Valley,WA,98038,2022,TESLA,MODEL 3,Battery Electric Vehicle (BEV),Eligibility unknown as battery range has not been researched,0,0,POINT (-122.05191 47.357985),-122.05191,47.357985
WBY1Z8C36H,Snohomish,Edmonds,WA,98020,2017,BMW,I3,Plug-in Hybrid Electric Vehicle (PHEV),Clean Alternative Fuel Vehicle Eligible,97,0,POINT (-122.37507 47.80807),-122.37507,47.80807
WA1VABGE4M,Clark,Vancouver,WA,98661,2021,AUDI,E-TRON,Battery Electric Vehicle (BEV),Clean Alternative Fuel Vehicle Eligible,222,0,POINT (-122.641835 45.638545),-122.641835,45.638545
1G1FZ6S03P,Chelan,Wenatchee,WA,98801,2023,CHEVROLET,BOLT EUV,Battery Electric Vehicle (BEV),Eligibility unknown as battery range has not been researched,0,0,POINT (-120.32009 47.42255),-120.32009,47.42255
JN1AZ0CP2C,King,Seattle,WA,98178,2012,NISSAN,LEAF,Battery Electric Vehicle (BEV),Clean Alternative Fuel Vehicle Eligible,73,0,POINT (-122.234385 47.494545),-122.234385,47.494545
7SAYGDEE4P,King,Redmond,WA,98053,2023,TESLA,MODEL Y,Battery Electric Vehicle (BEV),Eligibility unknown as battery range has not been researched,0,0,POINT (-122.0222799 47.6958998),-122.0222799,47.6958998
7SAYGDEE0P,Spokane,Spokane,WA,99208,2023,TESLA,MODEL Y,Battery Electric Vehicle (BEV),Eligibility unknown as battery range has not been researched,0,0,POINT (-117.40725 47.718625),-117.40725,47.718625
WA1J2BFZ1N,King,Bellevue,WA,98006,2022,AUDI,Q4,Battery Electric Vehicle (BEV),Eligibility unknown as battery range has not been researched,0,0,POINT (-122.16937 47.571015),-122.16937,47.571015
5YJYGDEE8L,Snohomish,Bothell,WA,98021,2020,TESLA,MODEL Y,Battery Electric Vehicle (BEV),Clean Alternative Fuel Vehicle Eligible,291,0,POINT (-122.179458 47.802589),-122.179458,47.802589
2C4RC1S77P,King,Renton,WA,98057,2023,CHRYSLER,PACIFICA,Plug-in Hybrid Electric Vehicle (PHEV),Clean Alternative Fuel Vehicle Eligible,32,0,POINT (-122.21024 47.4797047),-122.21024,47.4797047
JA4J24A59J,Spokane,Spokane,WA,99212,2018,MITSUBISHI,OUTLANDER,Plug-in Hybrid Electric Vehicle (PHEV),Not eligible due to low battery range,22,0,POINT (-117.288055 47.68043),-117.288055,47.68043
7FCTGAAL3N,Pierce,Gig Harbor,WA,98335,2022,RIVIAN,R1T,Battery Electric Vehicle (BEV),Eligibility unknown as battery range has not been researched,0,0,POINT (-122.5835454 47.3234488),-122.5835454,47.3234488
1G1FY6S06K,King,Seattle,WA,98103,2019,CHEVROLET,BOLT EV,Battery Electric Vehicle (BEV),Clean Alternative Fuel Vehicle Eligible,238,0,POINT (-122.34301 47.659185),-122.34301,47.659185
5UXTA6C06P,King,Bellevue,WA,98004,2023,BMW,X5,Plug-in Hybrid Electric Vehicle (PHEV),Clean Alternative Fuel Vehicle Eligible,30,0,POINT (-122.201905 47.61385),-122.201905,47.61385
4JGGM1CB0P,King,Sammamish,WA,98029,2023,MERCEDES-BENZ,EQE-CLASS SUV,Battery Electric Vehicle (BEV),Eligibility unknown as battery range has not been researched,0,0,POINT (-121.9993659 47.5484866),-121.9993659,47.5484866
5YJ3E1EB2L,Franklin,Pasco,WA,99301,2020,TESLA,MODEL 3,Battery Electric Vehicle (BEV),Clean Alternative Fuel Vehicle Eligible,322,0,POINT (-119.0982 46.232395),-119.0982,46.232395
5YJ3E1EA5N,King,Seattle,WA,98126,2022,TESLA,MODEL 3,Battery Electric Vehicle (BEV),Eligibility unknown as battery range has not been researched,0,0,POINT (-122.374105 47.54468),-122.374105,47.54468
5YJ3E1EB3J,Pierce,Tacoma,WA,98406,2018,TESLA,MODEL 3,Battery Electric Vehicle (BEV),Clean Alternative Fuel Vehicle Eligible,215,0,POINT (-122.490985 47.26365),-122.490985,47.26365
7SAYGDEE5P,Snohomish,Bothell,WA,98021,2023,TESLA,MODEL Y,Battery Electric Vehicle (BEV),Eligibility unknown as battery range has not been researched,0,0,POINT (-122.179458 47.802589),-122.179458,47.802589
3C3CFFGE7E,Clark,Vancouver,WA,98682,2014,FIAT,500,Battery Electric Vehicle (BEV),Clean Alternative Fuel Vehicle Eligible,87,0,POINT (-122.5146473 45.67862),-122.5146473,45.67862
5YJ3E1EB6J,King,Des Moines,WA,98198,2018,TESLA,MODEL 3,Battery Electric Vehicle (BEV),Clean Alternative Fuel Vehicle Eligible,215,0,POINT (-122.3219166 47.4013897),-122.3219166,47.4013897
7SAYGDEE9N,King,Seattle,WA,98107,2022,TESLA,MODEL Y,Battery Electric Vehicle (BEV),Eligibility unknown as battery range has not been researched,0,0,POINT (-122.37815 47.66866),-122.37815,47.66866
5YJYGDEE3M,Snohomish,Bothell,WA,98012,2021,TESLA,MODEL Y,Battery Electric Vehicle (BEV),Eligibility unknown as battery range has not been researched,0,0,POINT (-122.1873 47.820245),-122.1873,47.820245
JTDKARFP5H,Snohomish,Bothell,WA,98021,2017,TOYOTA,PRIUS PRIME,Plug-in Hybrid Electric Vehicle (PHEV),Not eligible due to low battery range,25,0,POINT (-122.179458 47.802589),-122.179458,47.802589
5YJ3E1EBXJ,Stevens,Loon Lake,WA,99148,2018,TESLA,MODEL 3,Battery Electric Vehicle (BEV),Clean Alternative Fuel Vehicle Eligible,215,0,POINT (-117.63454 48.05954),-117.63454,48.05954
5YJ3E1EA3J,Snohomish,Edmonds,WA,98026,2018,TESLA,MODEL 3,Battery Electric Vehicle (BEV),Clean Alternative Fuel Vehicle Eligible,215,0,POINT (-122.335685 47.80372),-122.335685,47.80372
1FADP3R41D,King,Shoreline,WA,98133,2013,FORD,FOCUS,Battery Electric Vehicle (BEV),Clean Alternative Fuel Vehicle Eligible,76,0,POINT (-122.34584 47.76726),-122.34584,47.76726
5YJSA1E4XJ,Snohomish,Bothell,WA,98021,2018,TESLA,MODEL S,Battery Electric Vehicle (BEV),Clean Alternative Fuel Vehicle Eligible,249,0,POINT (-122.179458 47.802589),-122.179458,47.802589
1G1FZ6S0XL,King,Seattle,WA,98116,2020,CHEVROLET,BOLT EV,Battery Electric Vehicle (BEV),Clean Alternative Fuel Vehicle Eligible,259,0,POINT (-122.38679 47.56484),-122.38679,47.56484
5YJ3E1EB5L,King,Seattle,WA,98103,2020,TESLA,MODEL 3,Battery Electric Vehicle (BEV),Clean Alternative Fuel Vehicle Eligible,322,0,POINT (-122.34301 47.659185),-122.34301,47.659185
KM8KM4AE5N,Whatcom,Ferndale,WA,98248,2022,HYUNDAI,IONIQ 5,Battery Electric Vehicle (BEV),Eligibility unknown as battery range has not been researched,0,0,POINT (-122.6011039 48.85324),-122.6011039,48.85324
JN1AF0BA0P,Snohomish,Lynnwood,WA,98036,2023,NISSAN,ARIYA,Battery Electric Vehicle (BEV),Eligibility unknown as battery range has not been researched,0,0,POINT (-122.316675 47.819365),-122.316675,47.819365
WMWXP3C05M,King,Duvall,WA,98014,2021,MINI,HARDTOP,Battery Electric Vehicle (BEV),Clean Alternative Fuel Vehicle Eligible,110,0,POINT (-121.9105947 47.6483005),-121.9105947,47.6483005
KM8KNDAF3P,King,Seattle,WA,98106,2023,HYUNDAI,IONIQ 5,Battery Electric Vehicle (BEV),Eligibility unknown as battery range has not been researched,0,0,POINT (-122.356145 47.52104),-122.356145,47.52104
5UX43EU07R,Douglas,East Wenatchee,WA,98802,2024,BMW,X5,Plug-in Hybrid Electric Vehicle (PHEV),Clean Alternative Fuel Vehicle Eligible,39,0,POINT (-120.28674 47.4176),-120.28674,47.4176
5YJ3E1EC7M,King,Auburn,WA,98092,2021,TESLA,MODEL 3,Battery Electric Vehicle (BEV),Eligibility unknown as battery range has not been researched,0,0,POINT (-122.1820969 47.3198995),-122.1820969,47.3198995
5YJ3E1EA5P,Clark,Camas,WA,98607,2023,TESLA,MODEL 3,Battery Electric Vehicle (BEV),Eligibility unknown as battery range has not been researched,0,0,POINT (-122.405565 45.59009),-122.405565,45.59009
1FT6W1EV0P,Pierce,Tacoma,WA,98443,2023,FORD,F-150,Battery Electric Vehicle (BEV),Eligibility unknown as battery range has not been researched,0,0,POINT (-122.364635 47.19449),-122.364635,47.19449
5YJYGDEEXM,Lewis,Salkum,WA,98582,2021,TESLA,MODEL Y,Battery Electric Vehicle (BEV),Eligibility unknown as battery range has not been researched,0,0,POINT (-122.62985 46.53179),-122.62985,46.53179
KM8K33AG9M,Whatcom,Lynden,WA,98264,2021,HYUNDAI,KONA ELECTRIC,Battery Electric Vehicle (BEV),Eligibility unknown as battery range has not been researched,0,0,POINT (-122.4584536 48.9461196),-122.4584536,48.9461196
5YJSA1E26G,Benton,Kennewick,WA,99338,2016,TESLA,MODEL S,Battery Electric Vehicle (BEV),Clean Alternative Fuel Vehicle Eligible,210,0,POINT (-119.1973001 46.1911488),-119.1973001,46.1911488
5YJ3E1EA7P,King,Kent,WA,98092,2023,TESLA,MODEL 3,Battery Electric Vehicle (BEV),Eligibility unknown as battery range has not been researched,0,0,POINT (-122.1820969 47.3198995),-122.1820969,47.3198995
KNDC3DLC5N,Jefferson,Port Townsend,WA,98368,2022,KIA,EV6,Battery Electric Vehicle (BEV),Eligibility unknown as battery range has not been researched,0,0,POINT (-122.7644197 48.1195874),-122.7644197,48.1195874
5YJ3E1EA1P,Benton,Richland,WA,99352,2023,TESLA,MODEL 3,Battery Electric Vehicle (BEV),Eligibility unknown as battery range has not been researched,0,0,POINT (-119.2952071 46.272495),-119.2952071,46.272495
1C4JJXR64M,Skagit,Mount Vernon,WA,98273,2021,JEEP,WRANGLER,Plug-in Hybrid Electric Vehicle (PHEV),Not eligible due to low battery range,21,0,POINT (-122.338975 48.41333),-122.338975,48.41333
5YJSA1CN8D,Thurston,Olympia,WA,98501,2013,TESLA,MODEL S,Battery Electric Vehicle (BEV),Clean Alternative Fuel Vehicle Eligible,208,69900,POINT (-122.89692 47.043535),-122.89692,47.043535
YH4K14AA5C,King,Mercer Island,WA,98040,2012,FISKER,KARMA,Plug-in Hybrid Electric Vehicle (PHEV),Clean Alternative Fuel Vehicle Eligible,33,102000,POINT (-122.2377542 47.582905),-122.2377542,47.582905
JTDKN3DP6E,King,Seattle,WA,98103,2014,TOYOTA,PRIUS PLUG-IN,Plug-in Hybrid Electric Vehicle (PHEV),Not eligible due to low battery range,6,0,POINT (-122.34301 47.659185),-122.34301,47.659185
5YJ3E1EB5M,King,Seattle,WA,98106,2021,TESLA,MODEL 3,Battery Electric Vehicle (BEV),Eligibility unknown as battery range has not been researched,0,0,POINT (-122.356145 47.52104),-122.356145,47.52104
WVGTMPE2XN,King,Seattle,WA,98144,2022,VOLKSWAGEN,ID.4,Battery Electric Vehicle (BEV),Eligibility unknown as battery range has not been researched,0,0,POINT (-122.30823 47.581975),-122.30823,47.581975
JHMZC5F39J,Snohomish,Snohomish,WA,98296,2018,HONDA,CLARITY,Plug-in Hybrid Electric Vehicle (PHEV),Clean Alternative Fuel Vehicle Eligible,47,0,POINT (-122.15134 47.8851158),-122.15134,47.8851158
1N4AZ1CPXL,Clark,Vancouver,WA,98682,2020,NISSAN,LEAF,Battery Electric Vehicle (BEV),Clean Alternative Fuel Vehicle Eligible,149,0,POINT (-122.5146473 45.67862),-122.5146473,45.67862
JTMFB3FV8P,Benton,Richland,WA,99352,2023,TOYOTA,RAV4 PRIME,Plug-in Hybrid Electric Vehicle (PHEV),Clean Alternative Fuel Vehicle Eligible,42,0,POINT (-119.2952071 46.272495),-119.2952071,46.272495
1V2GNPE87P,King,Seattle,WA,98118,2023,VOLKSWAGEN,ID.4,Battery Electric Vehicle (BEV),Eligibility unknown as battery range has not been researched,0,0,POINT (-122.28339 47.549285),-122.28339,47.549285
1G1RG6E47E,Clark,Ridgefield,WA,98642,2014,CHEVROLET,VOLT,Plug-in Hybrid Electric Vehicle (PHEV),Clean Alternative Fuel Vehicle Eligible,38,0,POINT (-122.74291 45.818445),-122.74291,45.818445
WP0AK2A74N,Pierce,Puyallup,WA,98372,2022,PORSCHE,PANAMERA,Plug-in Hybrid Electric Vehicle (PHEV),Not eligible due to low battery range,19,0,POINT (-122.28718 47.190465),-122.28718,47.190465
5YJ3E1EB7N,Pierce,Tacoma,WA,98407,2022,TESLA,MODEL 3,Battery Electric Vehicle (BEV),Eligibility unknown as battery range has not been researched,0,0,POINT (-122.5113356 47.2923828),-122.5113356,47.2923828
5YJYGDEE9M,King,Redmond,WA,98053,2021,TESLA,MODEL Y,Battery Electric Vehicle (BEV),Eligibility unknown as battery range has not been researched,0,0,POINT (-122.0222799 47.6958998),-122.0222799,47.6958998
2C4RC1S78M,Pierce,Puyallup,WA,98371,2021,CHRYSLER,PACIFICA,Plug-in Hybrid Electric Vehicle (PHEV),Clean Alternative Fuel Vehicle Eligible,32,0,POINT (-122.299155 47.19178),-122.299155,47.19178
7SAYGAEE5P,Pierce,Edgewood,WA,98372,2023,TESLA,MODEL Y,Battery Electric Vehicle (BEV),Eligibility unknown as battery range has not been researched,0,0,POINT (-122.28718 47.190465),-122.28718,47.190465
WP0AC2Y17M,Clark,Camas,WA,98607,2021,PORSCHE,TAYCAN,Battery Electric Vehicle (BEV),Clean Alternative Fuel Vehicle Eligible,192,0,POINT (-122.405565 45.59009),-122.405565,45.59009
1FADP3R42E,Snohomish,Bothell,WA,98021,2014,FORD,FOCUS,Battery Electric Vehicle (BEV),Clean Alternative Fuel Vehicle Eligible,76,0,POINT (-122.179458 47.802589),-122.179458,47.802589
3FMTK1SS9P,Clallam,Sequim,WA,98382,2023,FORD,MUSTANG MACH-E,Battery Electric Vehicle (BEV),Eligibility unknown as battery range has not been researched,0,0,POINT (-123.105015 48.08125),-123.105015,48.08125
1GYKPPRL3R,Whatcom,Ferndale,WA,98248,2024,CADILLAC,LYRIQ,Battery Electric Vehicle (BEV),Eligibility unknown as battery range has not been researched,0,0,POINT (-122.6011039 48.85324),-122.6011039,48.85324
1N4BZ0CP9H,Pierce,University Place,WA,98467,2017,NISSAN,LEAF,Battery Electric Vehicle (BEV),Clean Alternative Fuel Vehicle Eligible,107,0,POINT (-122.5404512 47.2074166),-122.5404512,47.2074166
WMW13DJ08P,Benton,Richland,WA,99354,2023,MINI,HARDTOP,Battery Electric Vehicle (BEV),Eligibility unknown as battery range has not been researched,0,0,POINT (-119.28753 46.29747),-119.28753,46.29747
1N4CZ1CV1P,Whatcom,Deming,WA,98244,2023,NISSAN,LEAF,Battery Electric Vehicle (BEV),Eligibility unknown as battery range has not been researched,0,0,POINT (-122.2121108 48.8228838),-122.2121108,48.8228838
5UXTS1C05M,King,Seattle,WA,98102,2021,BMW,X3,Plug-in Hybrid Electric Vehicle (PHEV),Not eligible due to low battery range,17,0,POINT (-122.32226 47.64058),-122.32226,47.64058
WA142BFZ9P,King,Seattle,WA,98103,2023,AUDI,Q4,Battery Electric Vehicle (BEV),Eligibility unknown as battery range has not been researched,0,0,POINT (-122.34301 47.659185),-122.34301,47.659185
7SAYGDEE8P,Snohomish,Lynnwood,WA,98087,2023,TESLA,MODEL Y,Battery Electric Vehicle (BEV),Eligibility unknown as battery range has not been researched,0,0,POINT (-122.2551991 47.8650827),-122.2551991,47.8650827
5YJYGAEE3M,Snohomish,Bothell,WA,98012,2021,TESLA,MODEL Y,Battery Electric Vehicle (BEV),Eligibility unknown as battery range has not been researched,0,0,POINT (-122.1873 47.820245),-122.1873,47.820245
5YJYGDEE1M,Whatcom,Bellingham,WA,98225,2021,TESLA,MODEL Y,Battery Electric Vehicle (BEV),Eligibility unknown as battery range has not been researched,0,0,POINT (-122.486115 48.761615),-122.486115,48.761615
JHMZC5F16J,Island,Coupeville,WA,98239,2018,HONDA,CLARITY,Plug-in Hybrid Electric Vehicle (PHEV),Clean Alternative Fuel Vehicle Eligible,47,0,POINT (-122.6880708 48.2179983),-122.6880708,48.2179983
7SAYGAEE8P,King,Kent,WA,98032,2023,TESLA,MODEL Y,Battery Electric Vehicle (BEV),Eligibility unknown as battery range has not been researched,0,0,POINT (-122.235475 47.3809),-122.235475,47.3809
5YJYGDED6M,Pierce,Puyallup,WA,98374,2021,TESLA,MODEL Y,Battery Electric Vehicle (BEV),Eligibility unknown as battery range has not been researched,0,0,POINT (-122.275748 47.1395924),-122.275748,47.1395924
5YJ3E1EB2L,King,Redmond,WA,98052,2020,TESLA,MODEL 3,Battery Electric Vehicle (BEV),Clean Alternative Fuel Vehicle Eligible,322,0,POINT (-122.12302 47.67668),-122.12302,47.67668
3FMTK2SUXP,Snohomish,Everett,WA,98201,2023,FORD,MUSTANG MACH-E,Battery Electric Vehicle (BEV),Eligibility unknown as battery range has not been researched,0,0,POINT (-122.20722 47.979935),-122.20722,47.979935
KNDCR3L14P,Chelan,Leavenworth,WA,98826,2023,KIA,NIRO,Battery Electric Vehicle (BEV),Eligibility unknown as battery range has not been researched,0,0,POINT (-120.6619153 47.5970083),-120.6619153,47.5970083
7SAYGDEE1P,King,Sammamish,WA,98075,2023,TESLA,MODEL Y,Battery Electric Vehicle (BEV),Eligibility unknown as battery range has not been researched,0,0,POINT (-122.03309 47.58153),-122.03309,47.58153
1N4AZ1CP1J,Kitsap,Bremerton,WA,98310,2018,NISSAN,LEAF,Battery Electric Vehicle (BEV),Clean Alternative Fuel Vehicle Eligible,151,0,POINT (-122.611365 47.575195),-122.611365,47.575195
7SAYGDEE5P,Pierce,Edgewood,WA,98371,2023,TESLA,MODEL Y,Battery Electric Vehicle (BEV),Eligibility unknown as battery range has not been researched,0,0,POINT (-122.299155 47.19178),-122.299155,47.19178
1C4RJYB64N,Chelan,Cashmere,WA,98815,2022,JEEP,GRAND CHEROKEE,Plug-in Hybrid Electric Vehicle (PHEV),Not eligible due to low battery range,25,0,POINT (-120.4687 47.5173233),-120.4687,47.5173233
7SAYGAEEXN,Plaquemines,Belle Chasse,LA,70037,2022,TESLA,MODEL Y,Battery Electric Vehicle (BEV),Eligibility unknown as battery range has not been researched,0,0,POINT (-89.9907848 29.855449),-89.9907848,29.855449
7SAYGDEF1N,Benton,Richland,WA,99354,2022,TESLA,MODEL Y,Battery Electric Vehicle (BEV),Eligibility unknown as battery range has not been researched,0,0,POINT (-119.28753 46.29747),-119.28753,46.29747
7SAYGDEE1N,King,Seattle,WA,98117,2022,TESLA,MODEL Y,Battery Electric Vehicle (BEV),Eligibility unknown as battery range has not been researched,0,0,POINT (-122.37275 47.68968),-122.37275,47.68968
7SAYGDEF2P,Grays Harbor,Elma,WA,98541,2023,TESLA,MODEL Y,Battery Electric Vehicle (BEV),Eligibility unknown as battery range has not been researched,0,0,POINT (-123.410105 47.00679),-123.410105,47.00679
5YJXCBE28J,King,Mercer Island,WA,98040,2018,TESLA,MODEL X,Battery Electric Vehicle (BEV),Clean Alternative Fuel Vehicle Eligible,238,0,POINT (-122.2377542 47.582905),-122.2377542,47.582905
1G1FW6S08P,Mason,Grapeview,WA,98546,2023,CHEVROLET,BOLT EV,Battery Electric Vehicle (BEV),Eligibility unknown as battery range has not been researched,0,0,POINT (-122.9529423 47.3248964),-122.9529423,47.3248964
1FADP5CU0D,Snohomish,Edmonds,WA,98026,2013,FORD,C-MAX,Plug-in Hybrid Electric Vehicle (PHEV),Not eligible due to low battery range,19,0,POINT (-122.335685 47.80372),-122.335685,47.80372
5YJYGDEE3M,Snohomish,Mountlake Terrace,WA,98043,2021,TESLA,MODEL Y,Battery Electric Vehicle (BEV),Eligibility unknown as battery range has not been researched,0,0,POINT (-122.30842 47.78416),-122.30842,47.78416
5YJ3E1EB5N,Pierce,Tacoma,WA,98409,2022,TESLA,MODEL 3,Battery Electric Vehicle (BEV),Eligibility unknown as battery range has not been researched,0,0,POINT (-122.47913 47.2198),-122.47913,47.2198
JTDACACU0P,Whatcom,Bellingham,WA,98225,2023,TOYOTA,PRIUS,Plug-in Hybrid Electric Vehicle (PHEV),Clean Alternative Fuel Vehicle Eligible,39,0,POINT (-122.486115 48.761615),-122.486115,48.761615
1V2DNPE81P,Whatcom,Bellingham,WA,98229,2023,VOLKSWAGEN,ID.4,Battery Electric Vehicle (BEV),Eligibility unknown as battery range has not been researched,0,0,POINT (-122.4569227 48.7470973),-122.4569227,48.7470973
1C4JJXP60P,Snohomish,Brier,WA,98036,2023,JEEP,WRANGLER,Plug-in Hybrid Electric Vehicle (PHEV),Not eligible due to low battery range,21,0,POINT (-122.316675 47.819365),-122.316675,47.819365
5YJSA1E20J,Mason,Lilliwaup,WA,98555,2018,TESLA,MODEL S,Battery Electric Vehicle (BEV),Clean Alternative Fuel Vehicle Eligible,249,0,POINT (-123.06963 47.50073),-123.06963,47.50073
5YJ3E1EB6J,Yakima,Yakima,WA,98903,2018,TESLA,MODEL 3,Battery Electric Vehicle (BEV),Clean Alternative Fuel Vehicle Eligible,215,0,POINT (-120.477805 46.553505),-120.477805,46.553505
3FA6P0PUXH,Chelan,Wenatchee,WA,98801,2017,FORD,FUSION,Plug-in Hybrid Electric Vehicle (PHEV),Not eligible due to low battery range,21,0,POINT (-120.32009 47.42255),-120.32009,47.42255
7SAYGAEE0P,Snohomish,Bothell,WA,98021,2023,TESLA,MODEL Y,Battery Electric Vehicle (BEV),Eligibility unknown as battery range has not been researched,0,0,POINT (-122.179458 47.802589),-122.179458,47.802589
5YJXCAE24G,King,Issaquah,WA,98029,2016,TESLA,MODEL X,Battery Electric Vehicle (BEV),Clean Alternative Fuel Vehicle Eligible,200,0,POINT (-121.9993659 47.5484866),-121.9993659,47.5484866
5YJ3E1EA8M,Snohomish,Snohomish,WA,98296,2021,TESLA,MODEL 3,Battery Electric Vehicle (BEV),Eligibility unknown as battery range has not been researched,0,0,POINT (-122.15134 47.8851158),-122.15134,47.8851158
1V2CMPE84P,Jefferson,Port Ludlow,WA,98365,2023,VOLKSWAGEN,ID.4,Battery Electric Vehicle (BEV),Eligibility unknown as battery range has not been researched,0,0,POINT (-122.6872285 47.9281524),-122.6872285,47.9281524
7SAYGDEEXP,Snohomish,Bothell,WA,98021,2023,TESLA,MODEL Y,Battery Electric Vehicle (BEV),Eligibility unknown as battery range has not been researched,0,0,POINT (-122.179458 47.802589),-122.179458,47.802589
5YJ3E1EA6N,Snohomish,Bothell,WA,98021,2022,TESLA,MODEL 3,Battery Electric Vehicle (BEV),Eligibility unknown as battery range has not been researched,0,0,POINT (-122.179458 47.802589),-122.179458,47.802589
JTDKN3DP7C,Franklin,Pasco,WA,99301,2012,TOYOTA,PRIUS PLUG-IN,Plug-in Hybrid Electric Vehicle (PHEV),Not eligible due to low battery range,6,0,POINT (-119.0982 46.232395),-119.0982,46.232395
5YJ3E1EA8N,King,Redmond,WA,98052,2022,TESLA,MODEL 3,Battery Electric Vehicle (BEV),Eligibility unknown as battery range has not been researched,0,0,POINT (-122.12302 47.67668),-122.12302,47.67668
3FMTK3SU0P,King,Mercer Island,WA,98040,2023,FORD,MUSTANG MACH-E,Battery Electric Vehicle (BEV),Eligibility unknown as battery range has not been researched,0,0,POINT (-122.2377542 47.582905),-122.2377542,47.582905
KM8KRDAF1P,Island,Camano Island,WA,98282,2023,HYUNDAI,IONIQ 5,Battery Electric Vehicle (BEV),Eligibility unknown as battery range has not been researched,0,0,POINT (-122.5310901 48.2192797),-122.5310901,48.2192797
5YJ3E1ECXL,Clark,Brush Prairie,WA,98606,2020,TESLA,MODEL 3,Battery Electric Vehicle (BEV),Clean Alternative Fuel Vehicle Eligible,308,0,POINT (-122.5485715 45.7336587),-122.5485715,45.7336587
3C3CFFGE0F,King,Seattle,WA,98106,2015,FIAT,500,Battery Electric Vehicle (BEV),Clean Alternative Fuel Vehicle Eligible,87,0,POINT (-122.356145 47.52104),-122.356145,47.52104
JF2GTDNC5K,Snohomish,Marysville,WA,98270,2019,SUBARU,CROSSTREK,Plug-in Hybrid Electric Vehicle (PHEV),Not eligible due to low battery range,17,34995,POINT (-122.17673 48.05542),-122.17673,48.05542
5YJYGDEE5M,Pierce,Steilacoom,WA,98388,2021,TESLA,MODEL Y,Battery Electric Vehicle (BEV),Eligibility unknown as battery range has not been researched,0,0,POINT (-122.5970685 47.1686632),-122.5970685,47.1686632
1N4AZ0CP1F,Snohomish,Edmonds,WA,98020,2015,NISSAN,LEAF,Battery Electric Vehicle (BEV),Clean Alternative Fuel Vehicle Eligible,84,0,POINT (-122.37507 47.80807),-122.37507,47.80807
5YJ3E1EC8P,Lewis,Onalaska,WA,98570,2023,TESLA,MODEL 3,Battery Electric Vehicle (BEV),Eligibility unknown as battery range has not been researched,0,0,POINT (-122.71921 46.577),-122.71921,46.577
5YJYGDEEXM,Clark,Vancouver,WA,98661,2021,TESLA,MODEL Y,Battery Electric Vehicle (BEV),Eligibility unknown as battery range has not been researched,0,0,POINT (-122.641835 45.638545),-122.641835,45.638545
1C4JJXP68M,Snohomish,Lake Stevens,WA,98258,2021,JEEP,WRANGLER,Plug-in Hybrid Electric Vehicle (PHEV),Not eligible due to low battery range,25,0,POINT (-122.112265 48.0047),-122.112265,48.0047
WAUUPBFF3H,King,Seattle,WA,98118,2017,AUDI,A3,Plug-in Hybrid Electric Vehicle (PHEV),Not eligible due to low battery range,16,0,POINT (-122.28339 47.549285),-122.28339,47.549285
1N4AZ0CP1E,Spokane,Spokane,WA,99223,2014,NISSAN,LEAF,Battery Electric Vehicle (BEV),Clean Alternative Fuel Vehicle Eligible,84,0,POINT (-117.369705 47.62637),-117.369705,47.62637
5YJ3E1EB4J,King,Redmond,WA,98053,2018,TESLA,MODEL 3,Battery Electric Vehicle (BEV),Clean Alternative Fuel Vehicle Eligible,215,0,POINT (-122.0222799 47.6958998),-122.0222799,47.6958998
7SAYGDEEXN,Snohomish,Snohomish,WA,98296,2022,TESLA,MODEL Y,Battery Electric Vehicle (BEV),Eligibility unknown as battery range has not been researched,0,0,POINT (-122.15134 47.8851158),-122.15134,47.8851158
7SAYGDEEXP,Whatcom,Bellingham,WA,98225,2023,TESLA,MODEL Y,Battery Electric Vehicle (BEV),Eligibility unknown as battery range has not been researched,0,0,POINT (-122.486115 48.761615),-122.486115,48.761615
W1N9M0KBXP,King,Mercer Island,WA,98040,2023,MERCEDES-BENZ,EQB-CLASS,Battery Electric Vehicle (BEV),Eligibility unknown as battery range has not been researched,0,0,POINT (-122.2377542 47.582905),-122.2377542,47.582905
3FA6P0SU2H,Spokane,Liberty Lake,WA,99019,2017,FORD,FUSION,Plug-in Hybrid Electric Vehicle (PHEV),Not eligible due to low battery range,21,0,POINT (-117.0923638 47.6643385),-117.0923638,47.6643385
JTJAAAAB7P,Pierce,Tacoma,WA,98444,2023,LEXUS,RZ 450E,Battery Electric Vehicle (BEV),Eligibility unknown as battery range has not been researched,0,0,POINT (-122.43827 47.153995),-122.43827,47.153995
7SAYGDEE1P,Okanogan,Winthrop,WA,98862,2023,TESLA,MODEL Y,Battery Electric Vehicle (BEV),Eligibility unknown as battery range has not been researched,0,0,POINT (-120.1774093 48.4741766),-120.1774093,48.4741766
KM8KM4AEXP,King,Mercer Island,WA,98040,2023,HYUNDAI,IONIQ 5,Battery Electric Vehicle (BEV),Eligibility unknown as battery range has not been researched,0,0,POINT (-122.2377542 47.582905),-122.2377542,47.582905
1N4AZ1CP6J,Whatcom,Bellingham,WA,98229,2018,NISSAN,LEAF,Battery Electric Vehicle (BEV),Clean Alternative Fuel Vehicle Eligible,151,0,POINT (-122.4569227 48.7470973),-122.4569227,48.7470973
7SAYGDEF7P,Spokane,Spokane,WA,99201,2023,TESLA,MODEL Y,Battery Electric Vehicle (BEV),Eligibility unknown as battery range has not been researched,0,0,POINT (-117.431895 47.667155),-117.431895,47.667155
5YJ3E1EA1J,King,Bellevue,WA,98006,2018,TESLA,MODEL 3,Battery Electric Vehicle (BEV),Clean Alternative Fuel Vehicle Eligible,215,0,POINT (-122.16937 47.571015),-122.16937,47.571015
7SAYGAEE6P,Thurston,Yelm,WA,98597,2023,TESLA,MODEL Y,Battery Electric Vehicle (BEV),Eligibility unknown as battery range has not been researched,0,0,POINT (-122.61023 46.94126),-122.61023,46.94126
3FMTK3SU1M,King,North Bend,WA,98045,2021,FORD,MUSTANG MACH-E,Battery Electric Vehicle (BEV),Eligibility unknown as battery range has not been researched,0,0,POINT (-121.7814012 47.4935316),-121.7814012,47.4935316
3FA6P0PU8J,Pierce,Puyallup,WA,98374,2018,FORD,FUSION,Plug-in Hybrid Electric Vehicle (PHEV),Not eligible due to low battery range,21,0,POINT (-122.275748 47.1395924),-122.275748,47.1395924
1N4AZ0CP2F,Skagit,Mount Vernon,WA,98273,2015,NISSAN,LEAF,Battery Electric Vehicle (BEV),Clean Alternative Fuel Vehicle Eligible,84,0,POINT (-122.338975 48.41333),-122.338975,48.41333
1N4AZ0CP3D,King,Seattle,WA,98107,2013,NISSAN,LEAF,Battery Electric Vehicle (BEV),Clean Alternative Fuel Vehicle Eligible,75,0,POINT (-122.37815 47.66866),-122.37815,47.66866
5YJ3E1EA1J,Madison,Saint Jacob,IL,62281,2018,TESLA,MODEL 3,Battery Electric Vehicle (BEV),Clean Alternative Fuel Vehicle Eligible,215,0,POINT (-89.769265 38.71637),-89.769265,38.71637
1N4AZ0CP3G,Pierce,Tacoma,WA,98422,2016,NISSAN,LEAF,Battery Electric Vehicle (BEV),Clean Alternative Fuel Vehicle Eligible,84,0,POINT (-122.38578 47.28971),-122.38578,47.28971
5YJXCDE40L,Thurston,Olympia,WA,98513,2020,TESLA,MODEL X,Battery Electric Vehicle (BEV),Clean Alternative Fuel Vehicle Eligible,289,0,POINT (-122.817545 46.98876),-122.817545,46.98876
5YJ3E1EB9P,Snohomish,Lynnwood,WA,98087,2023,TESLA,MODEL 3,Battery Electric Vehicle (BEV),Eligibility unknown as battery range has not been researched,0,0,POINT (-122.2551991 47.8650827),-122.2551991,47.8650827
7SAYGAEE8P,Thurston,Lacey,WA,98503,2023,TESLA,MODEL Y,Battery Electric Vehicle (BEV),Eligibility unknown as battery range has not been researched,0,0,POINT (-122.8285 47.03646),-122.8285,47.03646
1G1RD6E47D,Island,Freeland,WA,98249,2013,CHEVROLET,VOLT,Plug-in Hybrid Electric Vehicle (PHEV),Clean Alternative Fuel Vehicle Eligible,38,0,POINT (-122.544745 48.03024),-122.544745,48.03024
1FTVW1EV4P,King,Redmond,WA,98053,2023,FORD,F-150,Battery Electric Vehicle (BEV),Eligibility unknown as battery range has not been researched,0,0,POINT (-122.0222799 47.6958998),-122.0222799,47.6958998
5YJXCBE22H,Montgomery,Bethesda,MD,20814,2017,TESLA,MODEL X,Battery Electric Vehicle (BEV),Clean Alternative Fuel Vehicle Eligible,200,0,POINT (-77.0987 38.98706),-77.0987,38.98706
5YJ3E1EC0P,Spokane,Spokane,WA,99202,2023,TESLA,MODEL 3,Battery Electric Vehicle (BEV),Eligibility unknown as battery range has not been researched,0,0,POINT (-117.383045 47.661935),-117.383045,47.661935
7SAYGDEE8P,King,Seattle,WA,98126,2023,TESLA,MODEL Y,Battery Electric Vehicle (BEV),Eligibility unknown as battery range has not been researched,0,0,POINT (-122.374105 47.54468),-122.374105,47.54468
1G1FY6S03L,Mason,Shelton,WA,98584,2020,CHEVROLET,BOLT EV,Battery Electric Vehicle (BEV),Clean Alternative Fuel Vehicle Eligible,259,0,POINT (-123.105305 47.211085),-123.105305,47.211085
7SAYGAEE3N,King,Sammamish,WA,98075,2022,TESLA,MODEL Y,Battery Electric Vehicle (BEV),Eligibility unknown as battery range has not been researched,0,0,POINT (-122.03309 47.58153),-122.03309,47.58153
WVWPP7AU2G,Klickitat,White Salmon,WA,98672,2016,VOLKSWAGEN,E-GOLF,Battery Electric Vehicle (BEV),Clean Alternative Fuel Vehicle Eligible,83,0,POINT (-121.48347 45.72977),-121.48347,45.72977
1V2WNPE83P,Snohomish,Edmonds,WA,98026,2023,VOLKSWAGEN,ID.4,Battery Electric Vehicle (BEV),Eligibility unknown as battery range has not been researched,0,0,POINT (-122.335685 47.80372),-122.335685,47.80372
KNDCC3LD9N,Snohomish,Edmonds,WA,98020,2022,KIA,NIRO,Plug-in Hybrid Electric Vehicle (PHEV),Not eligible due to low battery range,26,0,POINT (-122.37507 47.80807),-122.37507,47.80807
JN1AF0BA4P,Pierce,Puyallup,WA,98374,2023,NISSAN,ARIYA,Battery Electric Vehicle (BEV),Eligibility unknown as battery range has not been researched,0,0,POINT (-122.275748 47.1395924),-122.275748,47.1395924
WVGGNPE26N,San Juan,Eastsound,WA,98245,2022,VOLKSWAGEN,ID.4,Battery Electric Vehicle (BEV),Eligibility unknown as battery range has not been researched,0,0,POINT (-122.907229 48.7016716),-122.907229,48.7016716
7FCTGAAA9N,Grant,Moses Lake,WA,98837,2022,RIVIAN,R1T,Battery Electric Vehicle (BEV),Eligibility unknown as battery range has not been researched,0,0,POINT (-119.2599876 47.1240154),-119.2599876,47.1240154
5YJ3E1EA5L,San Juan,Friday Harbor,WA,98250,2020,TESLA,MODEL 3,Battery Electric Vehicle (BEV),Clean Alternative Fuel Vehicle Eligible,266,0,POINT (-123.022255 48.531355),-123.022255,48.531355
7SAXCDE58P,King,Renton,WA,98058,2023,TESLA,MODEL X,Battery Electric Vehicle (BEV),Eligibility unknown as battery range has not been researched,0,0,POINT (-122.1298876 47.4451257),-122.1298876,47.4451257
WA1F2AFY0M,King,Kirkland,WA,98033,2021,AUDI,Q5 E,Plug-in Hybrid Electric Vehicle (PHEV),Not eligible due to low battery range,18,0,POINT (-122.20264 47.6785),-122.20264,47.6785
1G1FY6S09K,Benton,Prosser,WA,99350,2019,CHEVROLET,BOLT EV,Battery Electric Vehicle (BEV),Clean Alternative Fuel Vehicle Eligible,238,0,POINT (-119.769315 46.204995),-119.769315,46.204995
5YJ3E1EB5N,King,Seattle,WA,98121,2022,TESLA,MODEL 3,Battery Electric Vehicle (BEV),Eligibility unknown as battery range has not been researched,0,0,POINT (-122.344125 47.61546),-122.344125,47.61546
5YJSA1E29G,Grays Harbor,Pacific Beach,WA,98571,2016,TESLA,MODEL S,Battery Electric Vehicle (BEV),Clean Alternative Fuel Vehicle Eligible,210,0,POINT (-124.1965652 47.1969238),-124.1965652,47.1969238
5YJ3E1EB9K,King,Newcastle,WA,98059,2019,TESLA,MODEL 3,Battery Electric Vehicle (BEV),Clean Alternative Fuel Vehicle Eligible,220,0,POINT (-122.15734 47.487175),-122.15734,47.487175
1FADP5CU3D,Snohomish,Arlington,WA,98223,2013,FORD,C-MAX,Plug-in Hybrid Electric Vehicle (PHEV),Not eligible due to low battery range,19,0,POINT (-122.12324 48.19485),-122.12324,48.19485
5YJ3E1EB2K,King,Kent,WA,98031,2019,TESLA,MODEL 3,Battery Electric Vehicle (BEV),Clean Alternative Fuel Vehicle Eligible,220,0,POINT (-122.2012521 47.3931814),-122.2012521,47.3931814
7SAYGDEE3N,King,Issaquah,WA,98029,2022,TESLA,MODEL Y,Battery Electric Vehicle (BEV),Eligibility unknown as battery range has not been researched,0,0,POINT (-121.9993659 47.5484866),-121.9993659,47.5484866
JHMZC5F3XJ,Snohomish,Everett,WA,98201,2018,HONDA,CLARITY,Plug-in Hybrid Electric Vehicle (PHEV),Clean Alternative Fuel Vehicle Eligible,47,0,POINT (-122.20722 47.979935),-122.20722,47.979935
5YJ3E1EC2P,King,Kent,WA,98030,2023,TESLA,MODEL 3,Battery Electric Vehicle (BEV),Eligibility unknown as battery range has not been researched,0,0,POINT (-122.199755 47.37483),-122.199755,47.37483
7SAYGDEE8P,Snohomish,Bothell,WA,98021,2023,TESLA,MODEL Y,Battery Electric Vehicle (BEV),Eligibility unknown as battery range has not been researched,0,0,POINT (-122.179458 47.802589),-122.179458,47.802589
3FA6P0PU6F,Spokane,Spokane,WA,99208,2015,FORD,FUSION,Plug-in Hybrid Electric Vehicle (PHEV),Not eligible due to low battery range,19,0,POINT (-117.40725 47.718625),-117.40725,47.718625
1G1FW6S06H,Thurston,Olympia,WA,98501,2017,CHEVROLET,BOLT EV,Battery Electric Vehicle (BEV),Clean Alternative Fuel Vehicle Eligible,238,0,POINT (-122.89692 47.043535),-122.89692,47.043535
5YJ3E1EA7L,Snohomish,Bothell,WA,98021,2020,TESLA,MODEL 3,Battery Electric Vehicle (BEV),Clean Alternative Fuel Vehicle Eligible,266,0,POINT (-122.179458 47.802589),-122.179458,47.802589
KNDCC3LG9L,Thurston,Lacey,WA,98503,2020,KIA,NIRO,Battery Electric Vehicle (BEV),Clean Alternative Fuel Vehicle Eligible,239,0,POINT (-122.8285 47.03646),-122.8285,47.03646
5YJ3E1EB5J,King,Auburn,WA,98001,2018,TESLA,MODEL 3,Battery Electric Vehicle (BEV),Clean Alternative Fuel Vehicle Eligible,215,0,POINT (-122.2849393 47.3384055),-122.2849393,47.3384055
WBAJA9C55J,Skagit,Burlington,WA,98233,2018,BMW,530E,Plug-in Hybrid Electric Vehicle (PHEV),Not eligible due to low battery range,16,52650,POINT (-122.33079 48.474765),-122.33079,48.474765
WVGJNPE21N,Chelan,Cashmere,WA,98815,2022,VOLKSWAGEN,ID.4,Battery Electric Vehicle (BEV),Eligibility unknown as battery range has not been researched,0,0,POINT (-120.4687 47.5173233),-120.4687,47.5173233
7SAYGDEE2P,King,Sammamish,WA,98029,2023,TESLA,MODEL Y,Battery Electric Vehicle (BEV),Eligibility unknown as battery range has not been researched,0,0,POINT (-121.9993659 47.5484866),-121.9993659,47.5484866
WBA33AG02N,Pierce,Gig Harbor,WA,98335,2022,BMW,530E,Plug-in Hybrid Electric Vehicle (PHEV),Not eligible due to low battery range,18,0,POINT (-122.5835454 47.3234488),-122.5835454,47.3234488
1FMCU0EZ6N,King,Seattle,WA,98101,2022,FORD,ESCAPE,Plug-in Hybrid Electric Vehicle (PHEV),Clean Alternative Fuel Vehicle Eligible,38,0,POINT (-122.335345 47.61079),-122.335345,47.61079
JA4T5VA9XP,Whatcom,Bellingham,WA,98229,2023,MITSUBISHI,OUTLANDER,Plug-in Hybrid Electric Vehicle (PHEV),Clean Alternative Fuel Vehicle Eligible,38,0,POINT (-122.4569227 48.7470973),-122.4569227,48.7470973
KNDJX3AE9G,Franklin,Pasco,WA,99301,2016,KIA,SOUL,Battery Electric Vehicle (BEV),Clean Alternative Fuel Vehicle Eligible,93,31950,POINT (-119.0982 46.232395),-119.0982,46.232395
5YJSA1E26M,Kitsap,Bainbridge Island,WA,98110,2021,TESLA,MODEL S,Battery Electric Vehicle (BEV),Eligibility unknown as battery range has not been researched,0,0,POINT (-122.5235781 47.6293323),-122.5235781,47.6293323
WBY1Z4C59E,Pierce,Tacoma,WA,98408,2014,BMW,I3,Plug-in Hybrid Electric Vehicle (PHEV),Clean Alternative Fuel Vehicle Eligible,72,0,POINT (-122.438105 47.20322),-122.438105,47.20322
1C4RJYD61N,Franklin,Pasco,WA,99301,2022,JEEP,GRAND CHEROKEE,Plug-in Hybrid Electric Vehicle (PHEV),Not eligible due to low battery range,25,0,POINT (-119.0982 46.232395),-119.0982,46.232395
WA1LAAGE1K,King,Bellevue,WA,98008,2019,AUDI,E-TRON,Battery Electric Vehicle (BEV),Clean Alternative Fuel Vehicle Eligible,204,0,POINT (-122.11832 47.6245),-122.11832,47.6245
5YJ3E1EB6N,Pierce,Spanaway,WA,98387,2022,TESLA,MODEL 3,Battery Electric Vehicle (BEV),Eligibility unknown as battery range has not been researched,0,0,POINT (-122.435115 47.1045),-122.435115,47.1045
2C4RC1L73M,Spokane,Spokane,WA,99201,2021,CHRYSLER,PACIFICA,Plug-in Hybrid Electric Vehicle (PHEV),Clean Alternative Fuel Vehicle Eligible,32,0,POINT (-117.431895 47.667155),-117.431895,47.667155
7SAYGDEF6N,Spokane,Spokane,WA,99224,2022,TESLA,MODEL Y,Battery Electric Vehicle (BEV),Eligibility unknown as battery range has not been researched,0,0,POINT (-117.460225 47.64927),-117.460225,47.64927
KM8KRDAF5N,Snohomish,Marysville,WA,98270,2022,HYUNDAI,IONIQ 5,Battery Electric Vehicle (BEV),Eligibility unknown as battery range has not been researched,0,0,POINT (-122.17673 48.05542),-122.17673,48.05542
3FA6P0PU0H,Clallam,Sequim,WA,98382,2017,FORD,FUSION,Plug-in Hybrid Electric Vehicle (PHEV),Not eligible due to low battery range,21,0,POINT (-123.105015 48.08125),-123.105015,48.08125
1N4AZ1CV3N,Thurston,Olympia,WA,98502,2022,NISSAN,LEAF,Battery Electric Vehicle (BEV),Eligibility unknown as battery range has not been researched,0,0,POINT (-122.92145 47.045935),-122.92145,47.045935
7SAYGDEF9N,Snohomish,Sultan,WA,98294,2022,TESLA,MODEL Y,Battery Electric Vehicle (BEV),Eligibility unknown as battery range has not been researched,0,0,POINT (-121.814825 47.868195),-121.814825,47.868195
3MW5P9J02M,King,Seattle,WA,98121,2021,BMW,330E,Plug-in Hybrid Electric Vehicle (PHEV),Not eligible due to low battery range,20,0,POINT (-122.344125 47.61546),-122.344125,47.61546
1C4JJXP65M,Adams,Ritzville,WA,99169,2021,JEEP,WRANGLER,Plug-in Hybrid Electric Vehicle (PHEV),Not eligible due to low battery range,25,0,POINT (-118.376715 47.12569),-118.376715,47.12569
3FMTK4SE0M,Pierce,Lakewood,WA,98499,2021,FORD,MUSTANG MACH-E,Battery Electric Vehicle (BEV),Eligibility unknown as battery range has not been researched,0,0,POINT (-122.5181098 47.1712579),-122.5181098,47.1712579
5YJ3E1EB8N,Pierce,University Place,WA,98467,2022,TESLA,MODEL 3,Battery Electric Vehicle (BEV),Eligibility unknown as battery range has not been researched,0,0,POINT (-122.5404512 47.2074166),-122.5404512,47.2074166
1C4JJXR67M,Chelan,Chelan,WA,98816,2021,JEEP,WRANGLER,Plug-in Hybrid Electric Vehicle (PHEV),Not eligible due to low battery range,21,0,POINT (-120.015875 47.839895),-120.015875,47.839895
7SAYGDEE8N,King,Yarrow Point,WA,98004,2022,TESLA,MODEL Y,Battery Electric Vehicle (BEV),Eligibility unknown as battery range has not been researched,0,0,POINT (-122.201905 47.61385),-122.201905,47.61385
1N4AZ0CP4D,Snohomish,Monroe,WA,98272,2013,NISSAN,LEAF,Battery Electric Vehicle (BEV),Clean Alternative Fuel Vehicle Eligible,75,0,POINT (-121.972215 47.85674),-121.972215,47.85674
JTDKARFP1H,King,Seattle,WA,98104,2017,TOYOTA,PRIUS PRIME,Plug-in Hybrid Electric Vehicle (PHEV),Not eligible due to low battery range,25,0,POINT (-122.329075 47.6018),-122.329075,47.6018
2C4RC1L7XM,King,Renton,WA,98057,2021,CHRYSLER,PACIFICA,Plug-in Hybrid Electric Vehicle (PHEV),Clean Alternative Fuel Vehicle Eligible,32,0,POINT (-122.21024 47.4797047),-122.21024,47.4797047
5YJSA1E50N,Clark,Camas,WA,98607,2022,TESLA,MODEL S,Battery Electric Vehicle (BEV),Eligibility unknown as battery range has not been researched,0,0,POINT (-122.405565 45.59009),-122.405565,45.59009
KNDC34LA8P,Kitsap,Bainbridge Island,WA,98110,2023,KIA,EV6,Battery Electric Vehicle (BEV),Eligibility unknown as battery range has not been researched,0,0,POINT (-122.5235781 47.6293323),-122.5235781,47.6293323
5YJ3E1EB4J,Snohomish,Lynnwood,WA,98036,2018,TESLA,MODEL 3,Battery Electric Vehicle (BEV),Clean Alternative Fuel Vehicle Eligible,215,0,POINT (-122.316675 47.819365),-122.316675,47.819365
7SAYGDEEXN,Snohomish,Lake Stevens,WA,98258,2022,TESLA,MODEL Y,Battery Electric Vehicle (BEV),Eligibility unknown as battery range has not been researched,0,0,POINT (-122.112265 48.0047),-122.112265,48.0047
JTDKN3DP3F,Whatcom,Bellingham,WA,98226,2015,TOYOTA,PRIUS PLUG-IN,Plug-in Hybrid Electric Vehicle (PHEV),Not eligible due to low battery range,6,0,POINT (-122.45493 48.76809),-122.45493,48.76809
1N4AZ1CPXK,Pierce,Tacoma,WA,98406,2019,NISSAN,LEAF,Battery Electric Vehicle (BEV),Clean Alternative Fuel Vehicle Eligible,150,0,POINT (-122.490985 47.26365),-122.490985,47.26365
3FMTK1SS6N,Clark,Vancouver,WA,98660,2022,FORD,MUSTANG MACH-E,Battery Electric Vehicle (BEV),Eligibility unknown as battery range has not been researched,0,0,POINT (-122.675975 45.630465),-122.675975,45.630465
JTDKAMFP7N,King,Seattle,WA,98103,2022,TOYOTA,PRIUS PRIME,Plug-in Hybrid Electric Vehicle (PHEV),Not eligible due to low battery range,25,0,POINT (-122.34301 47.659185),-122.34301,47.659185
5YJ3E1EB6J,Kittitas,Ellensburg,WA,98926,2018,TESLA,MODEL 3,Battery Electric Vehicle (BEV),Clean Alternative Fuel Vehicle Eligible,215,0,POINT (-120.54513 46.993465),-120.54513,46.993465
5YJYGDEE3L,King,Kent,WA,98032,2020,TESLA,MODEL Y,Battery Electric Vehicle (BEV),Clean Alternative Fuel Vehicle Eligible,291,0,POINT (-122.235475 47.3809),-122.235475,47.3809
5YJ3E1EA7P,King,North Bend,WA,98045,2023,TESLA,MODEL 3,Battery Electric Vehicle (BEV),Eligibility unknown as battery range has not been researched,0,0,POINT (-121.7814012 47.4935316),-121.7814012,47.4935316
1N4AZ1CP5J,Snohomish,Bothell,WA,98021,2018,NISSAN,LEAF,Battery Electric Vehicle (BEV),Clean Alternative Fuel Vehicle Eligible,151,0,POINT (-122.179458 47.802589),-122.179458,47.802589
1N4BZ0CPXH,King,Issaquah,WA,98027,2017,NISSAN,LEAF,Battery Electric Vehicle (BEV),Clean Alternative Fuel Vehicle Eligible,107,0,POINT (-122.03646 47.534065),-122.03646,47.534065
5YJ3E1EA9L,Clark,Camas,WA,98607,2020,TESLA,MODEL 3,Battery Electric Vehicle (BEV),Clean Alternative Fuel Vehicle Eligible,266,0,POINT (-122.405565 45.59009),-122.405565,45.59009
5YJ3E1ECXN,King,Bellevue,WA,98004,2022,TESLA,MODEL 3,Battery Electric Vehicle (BEV),Eligibility unknown as battery range has not been researched,0,0,POINT (-122.201905 47.61385),-122.201905,47.61385
1N4BZ0CP6H,Clark,Vancouver,WA,98663,2017,NISSAN,LEAF,Battery Electric Vehicle (BEV),Clean Alternative Fuel Vehicle Eligible,107,0,POINT (-122.666325 45.641205),-122.666325,45.641205
1N4AZ1CPXL,Pierce,Tacoma,WA,98409,2020,NISSAN,LEAF,Battery Electric Vehicle (BEV),Clean Alternative Fuel Vehicle Eligible,149,0,POINT (-122.47913 47.2198),-122.47913,47.2198
5YJSA1DN6D,Yakima,Yakima,WA,98903,2013,TESLA,MODEL S,Battery Electric Vehicle (BEV),Clean Alternative Fuel Vehicle Eligible,208,69900,POINT (-120.477805 46.553505),-120.477805,46.553505
5YJ3E1EC5M,Pierce,Tacoma,WA,98445,2021,TESLA,MODEL 3,Battery Electric Vehicle (BEV),Eligibility unknown as battery range has not been researched,0,0,POINT (-122.40872 47.165675),-122.40872,47.165675
JTDKARFPXH,Snohomish,Bothell,WA,98021,2017,TOYOTA,PRIUS PRIME,Plug-in Hybrid Electric Vehicle (PHEV),Not eligible due to low battery range,25,0,POINT (-122.179458 47.802589),-122.179458,47.802589
1G1RC6S59H,Chelan,Chelan,WA,98816,2017,CHEVROLET,VOLT,Plug-in Hybrid Electric Vehicle (PHEV),Clean Alternative Fuel Vehicle Eligible,53,0,POINT (-120.015875 47.839895),-120.015875,47.839895
5YJ3E1EB9K,Klickitat,White Salmon,WA,98672,2019,TESLA,MODEL 3,Battery Electric Vehicle (BEV),Clean Alternative Fuel Vehicle Eligible,220,0,POINT (-121.48347 45.72977),-121.48347,45.72977
KM8KNDAF1P,Whatcom,Lynden,WA,98264,2023,HYUNDAI,IONIQ 5,Battery Electric Vehicle (BEV),Eligibility unknown as battery range has not been researched,0,0,POINT (-122.4584536 48.9461196),-122.4584536,48.9461196
5YJYGDEE2M,King,Auburn,WA,98001,2021,TESLA,MODEL Y,Battery Electric Vehicle (BEV),Eligibility unknown as battery range has not been researched,0,0,POINT (-122.2849393 47.3384055),-122.2849393,47.3384055
1G1FY6S01P,King,Seattle,WA,98117,2023,CHEVROLET,BOLT EUV,Battery Electric Vehicle (BEV),Eligibility unknown as battery range has not been researched,0,0,POINT (-122.37275 47.68968),-122.37275,47.68968
WBY1Z4C57G,King,Redmond,WA,98052,2016,BMW,I3,Plug-in Hybrid Electric Vehicle (PHEV),Clean Alternative Fuel Vehicle Eligible,72,0,POINT (-122.12302 47.67668),-122.12302,47.67668
2C4RC1S70M,Clark,Washougal,WA,98671,2021,CHRYSLER,PACIFICA,Plug-in Hybrid Electric Vehicle (PHEV),Clean Alternative Fuel Vehicle Eligible,32,0,POINT (-122.35465 45.58359),-122.35465,45.58359
5YJYGDEE2M,King,Fall City,WA,98024,2021,TESLA,MODEL Y,Battery Electric Vehicle (BEV),Eligibility unknown as battery range has not been researched,0,0,POINT (-121.8936184 47.5640832),-121.8936184,47.5640832
5YJ3E1EA8J,King,Seattle,WA,98117,2018,TESLA,MODEL 3,Battery Electric Vehicle (BEV),Clean Alternative Fuel Vehicle Eligible,215,0,POINT (-122.37275 47.68968),-122.37275,47.68968
5YJYGDEE1L,King,Kent,WA,98030,2020,TESLA,MODEL Y,Battery Electric Vehicle (BEV),Clean Alternative Fuel Vehicle Eligible,291,0,POINT (-122.199755 47.37483),-122.199755,47.37483
7SAYGDEE9P,Snohomish,Monroe,WA,98272,2023,TESLA,MODEL Y,Battery Electric Vehicle (BEV),Eligibility unknown as battery range has not been researched,0,0,POINT (-121.972215 47.85674),-121.972215,47.85674
5YJ3E1EA0M,King,Bellevue,WA,98027,2021,TESLA,MODEL 3,Battery Electric Vehicle (BEV),Eligibility unknown as battery range has not been researched,0,0,POINT (-122.03646 47.534065),-122.03646,47.534065
7PDSGABA1P,Pierce,South Hill,WA,98373,2023,RIVIAN,R1S,Battery Electric Vehicle (BEV),Eligibility unknown as battery range has not been researched,0,0,POINT (-122.2987976 47.13795),-122.2987976,47.13795
5YJ3E1EC0P,Pierce,Bonney Lake,WA,98391,2023,TESLA,MODEL 3,Battery Electric Vehicle (BEV),Eligibility unknown as battery range has not been researched,0,0,POINT (-122.183805 47.18062),-122.183805,47.18062
7SAYGDEE2P,Whitman,Pullman,WA,99163,2023,TESLA,MODEL Y,Battery Electric Vehicle (BEV),Eligibility unknown as battery range has not been researched,0,0,POINT (-117.17912 46.730885),-117.17912,46.730885
5YJ3E1EA1P,Kitsap,Bremerton,WA,98310,2023,TESLA,MODEL 3,Battery Electric Vehicle (BEV),Eligibility unknown as battery range has not been researched,0,0,POINT (-122.611365 47.575195),-122.611365,47.575195
5YJ3E1EB7J,Snohomish,Edmonds,WA,98020,2018,TESLA,MODEL 3,Battery Electric Vehicle (BEV),Clean Alternative Fuel Vehicle Eligible,215,0,POINT (-122.37507 47.80807),-122.37507,47.80807
5YJSA1E24M,King,Enumclaw,WA,98022,2021,TESLA,MODEL S,Battery Electric Vehicle (BEV),Eligibility unknown as battery range has not been researched,0,0,POINT (-121.98953 47.20347),-121.98953,47.20347
JTMAB3FV6M,Thurston,Lacey,WA,98503,2021,TOYOTA,RAV4 PRIME,Plug-in Hybrid Electric Vehicle (PHEV),Clean Alternative Fuel Vehicle Eligible,42,0,POINT (-122.8285 47.03646),-122.8285,47.03646
7SAYGDEE7P,King,Seattle,WA,98133,2023,TESLA,MODEL Y,Battery Electric Vehicle (BEV),Eligibility unknown as battery range has not been researched,0,0,POINT (-122.34584 47.76726),-122.34584,47.76726
7SAYGDEE0P,King,Kirkland,WA,98033,2023,TESLA,MODEL Y,Battery Electric Vehicle (BEV),Eligibility unknown as battery range has not been researched,0,0,POINT (-122.20264 47.6785),-122.20264,47.6785
2C4RC1L73M,King,Renton,WA,98057,2021,CHRYSLER,PACIFICA,Plug-in Hybrid Electric Vehicle (PHEV),Clean Alternative Fuel Vehicle Eligible,32,0,POINT (-122.21024 47.4797047),-122.21024,47.4797047
5YJ3E1EB8L,King,Seattle,WA,98109,2020,TESLA,MODEL 3,Battery Electric Vehicle (BEV),Clean Alternative Fuel Vehicle Eligible,322,0,POINT (-122.34848 47.632405),-122.34848,47.632405
1G1RA6E45D,Franklin,Pasco,WA,99301,2013,CHEVROLET,VOLT,Plug-in Hybrid Electric Vehicle (PHEV),Clean Alternative Fuel Vehicle Eligible,38,0,POINT (-119.0982 46.232395),-119.0982,46.232395
1FADP5CU4G,Pierce,Puyallup,WA,98371,2016,FORD,C-MAX,Plug-in Hybrid Electric Vehicle (PHEV),Not eligible due to low battery range,19,0,POINT (-122.299155 47.19178),-122.299155,47.19178
1N4BZ1CP8L,Cowlitz,Castle Rock,WA,98611,2020,NISSAN,LEAF,Battery Electric Vehicle (BEV),Clean Alternative Fuel Vehicle Eligible,215,0,POINT (-122.90778 46.2744),-122.90778,46.2744
1N4AZ0CP7G,Kitsap,Bainbridge Island,WA,98110,2016,NISSAN,LEAF,Battery Electric Vehicle (BEV),Clean Alternative Fuel Vehicle Eligible,84,0,POINT (-122.5235781 47.6293323),-122.5235781,47.6293323
1N4BZ0CP2H,King,Vashon,WA,98070,2017,NISSAN,LEAF,Battery Electric Vehicle (BEV),Clean Alternative Fuel Vehicle Eligible,107,0,POINT (-122.46049 47.44873),-122.46049,47.44873
JTDACACU0P,Clark,Washougal,WA,98671,2023,TOYOTA,PRIUS,Plug-in Hybrid Electric Vehicle (PHEV),Clean Alternative Fuel Vehicle Eligible,39,0,POINT (-122.35465 45.58359),-122.35465,45.58359
WMZYU7C52K,Mason,Shelton,WA,98584,2019,MINI,COUNTRYMAN,Plug-in Hybrid Electric Vehicle (PHEV),Not eligible due to low battery range,12,36900,POINT (-123.105305 47.211085),-123.105305,47.211085
7SAYGDEF8N,King,Sammamish,WA,98074,2022,TESLA,MODEL Y,Battery Electric Vehicle (BEV),Eligibility unknown as battery range has not been researched,0,0,POINT (-122.0313266 47.6285782),-122.0313266,47.6285782
5YJ3E1EA3N,King,Seattle,WA,98108,2022,TESLA,MODEL 3,Battery Electric Vehicle (BEV),Eligibility unknown as battery range has not been researched,0,0,POINT (-122.3268963 47.5499519),-122.3268963,47.5499519
5YJSA1E45H,Pierce,Bonney Lake,WA,98391,2017,TESLA,MODEL S,Battery Electric Vehicle (BEV),Clean Alternative Fuel Vehicle Eligible,210,0,POINT (-122.183805 47.18062),-122.183805,47.18062
1FTBW9CK7P,Thurston,Olympia,WA,98513,2023,FORD,TRANSIT,Battery Electric Vehicle (BEV),Eligibility unknown as battery range has not been researched,0,0,POINT (-122.817545 46.98876),-122.817545,46.98876
5YJYGDEE2L,King,Sammamish,WA,98075,2020,TESLA,MODEL Y,Battery Electric Vehicle (BEV),Clean Alternative Fuel Vehicle Eligible,291,0,POINT (-122.03309 47.58153),-122.03309,47.58153
WVWPR7AU5K,Snohomish,Everett,WA,98208,2019,VOLKSWAGEN,E-GOLF,Battery Electric Vehicle (BEV),Clean Alternative Fuel Vehicle Eligible,125,0,POINT (-122.2247757 47.9156409),-122.2247757,47.9156409
1FADP5CU7D,Skagit,Anacortes,WA,98221,2013,FORD,C-MAX,Plug-in Hybrid Electric Vehicle (PHEV),Not eligible due to low battery range,19,0,POINT (-122.615305 48.501275),-122.615305,48.501275
JTDKARFP6L,Thurston,Tumwater,WA,98501,2020,TOYOTA,PRIUS PRIME,Plug-in Hybrid Electric Vehicle (PHEV),Not eligible due to low battery range,25,0,POINT (-122.89692 47.043535),-122.89692,47.043535
1G1FX6S04N,Kitsap,Bremerton,WA,98310,2022,CHEVROLET,BOLT EV,Battery Electric Vehicle (BEV),Eligibility unknown as battery range has not been researched,0,0,POINT (-122.611365 47.575195),-122.611365,47.575195
5YJSA1E25J,King,Mercer Island,WA,98040,2018,TESLA,MODEL S,Battery Electric Vehicle (BEV),Clean Alternative Fuel Vehicle Eligible,249,0,POINT (-122.2377542 47.582905),-122.2377542,47.582905
5YJYGDEE2L,Spokane,Spokane,WA,99212,2020,TESLA,MODEL Y,Battery Electric Vehicle (BEV),Clean Alternative Fuel Vehicle Eligible,291,0,POINT (-117.288055 47.68043),-117.288055,47.68043
WA142BFZ9P,Snohomish,Snohomish,WA,98296,2023,AUDI,Q4,Battery Electric Vehicle (BEV),Eligibility unknown as battery range has not been researched,0,0,POINT (-122.15134 47.8851158),-122.15134,47.8851158
7SAYGDEE9P,King,Sammamish,WA,98074,2023,TESLA,MODEL Y,Battery Electric Vehicle (BEV),Eligibility unknown as battery range has not been researched,0,0,POINT (-122.0313266 47.6285782),-122.0313266,47.6285782
1G1FZ6S07N,Whatcom,Bellingham,WA,98226,2022,CHEVROLET,BOLT EV,Battery Electric Vehicle (BEV),Eligibility unknown as battery range has not been researched,0,0,POINT (-122.45493 48.76809),-122.45493,48.76809
WVGUNPE24N,Snohomish,Snohomish,WA,98296,2022,VOLKSWAGEN,ID.4,Battery Electric Vehicle (BEV),Eligibility unknown as battery range has not been researched,0,0,POINT (-122.15134 47.8851158),-122.15134,47.8851158
5YJYGDEF4M,Whatcom,Sedro Woolley,WA,98284,2021,TESLA,MODEL Y,Battery Electric Vehicle (BEV),Eligibility unknown as battery range has not been researched,0,0,POINT (-122.234 48.506125),-122.234,48.506125
7SAYGAEE9P,Pierce,Edgewood,WA,98372,2023,TESLA,MODEL Y,Battery Electric Vehicle (BEV),Eligibility unknown as battery range has not been researched,0,0,POINT (-122.28718 47.190465),-122.28718,47.190465
5YJYGDEE6M,King,Redmond,WA,98053,2021,TESLA,MODEL Y,Battery Electric Vehicle (BEV),Eligibility unknown as battery range has not been researched,0,0,POINT (-122.0222799 47.6958998),-122.0222799,47.6958998
5YJ3E1EA2M,King,Seattle,WA,98109,2021,TESLA,MODEL 3,Battery Electric Vehicle (BEV),Eligibility unknown as battery range has not been researched,0,0,POINT (-122.34848 47.632405),-122.34848,47.632405
5YJ3E1EB7N,Snohomish,Lake Stevens,WA,98258,2022,TESLA,MODEL 3,Battery Electric Vehicle (BEV),Eligibility unknown as battery range has not been researched,0,0,POINT (-122.112265 48.0047),-122.112265,48.0047
5YJXCAE22H,Benton,Kennewick,WA,99337,2017,TESLA,MODEL X,Battery Electric Vehicle (BEV),Clean Alternative Fuel Vehicle Eligible,200,0,POINT (-119.14533 46.187395),-119.14533,46.187395
JTJHKCFZXN,Clark,Washougal,WA,98671,2022,LEXUS,NX,Plug-in Hybrid Electric Vehicle (PHEV),Clean Alternative Fuel Vehicle Eligible,37,0,POINT (-122.35465 45.58359),-122.35465,45.58359
1FADP3R4XD,King,Redmond,WA,98053,2013,FORD,FOCUS,Battery Electric Vehicle (BEV),Clean Alternative Fuel Vehicle Eligible,76,0,POINT (-122.0222799 47.6958998),-122.0222799,47.6958998
1N4AZ0CP4E,Island,Freeland,WA,98249,2014,NISSAN,LEAF,Battery Electric Vehicle (BEV),Clean Alternative Fuel Vehicle Eligible,84,0,POINT (-122.544745 48.03024),-122.544745,48.03024
7SAYGDEEXP,Island,Coupeville,WA,98239,2023,TESLA,MODEL Y,Battery Electric Vehicle (BEV),Eligibility unknown as battery range has not been researched,0,0,POINT (-122.6880708 48.2179983),-122.6880708,48.2179983
7SAYGDEE9P,Spokane,Spokane,WA,99208,2023,TESLA,MODEL Y,Battery Electric Vehicle (BEV),Eligibility unknown as battery range has not been researched,0,0,POINT (-117.40725 47.718625),-117.40725,47.718625
7SAYGAEE5P,King,Seattle,WA,98115,2023,TESLA,MODEL Y,Battery Electric Vehicle (BEV),Eligibility unknown as battery range has not been researched,0,0,POINT (-122.3185 47.67949),-122.3185,47.67949
1G1RA6E47E,San Juan,Friday Harbor,WA,98250,2014,CHEVROLET,VOLT,Plug-in Hybrid Electric Vehicle (PHEV),Clean Alternative Fuel Vehicle Eligible,38,0,POINT (-123.022255 48.531355),-123.022255,48.531355
5YJXCAE25M,Pierce,Gig Harbor,WA,98335,2021,TESLA,MODEL X,Battery Electric Vehicle (BEV),Eligibility unknown as battery range has not been researched,0,0,POINT (-122.5835454 47.3234488),-122.5835454,47.3234488
5YJ3E1EB2J,Snohomish,Bothell,WA,98021,2018,TESLA,MODEL 3,Battery Electric Vehicle (BEV),Clean Alternative Fuel Vehicle Eligible,215,0,POINT (-122.179458 47.802589),-122.179458,47.802589
KNDCD3LD1J,Thurston,Olympia,WA,98503,2018,KIA,NIRO,Plug-in Hybrid Electric Vehicle (PHEV),Not eligible due to low battery range,26,0,POINT (-122.8285 47.03646),-122.8285,47.03646
5YJSA1E66M,Clark,Vancouver,WA,98683,2021,TESLA,MODEL S,Battery Electric Vehicle (BEV),Eligibility unknown as battery range has not been researched,0,0,POINT (-122.4853873 45.6083347),-122.4853873,45.6083347
YV4ED3UM5P,King,Issaquah,WA,98027,2023,VOLVO,XC40,Battery Electric Vehicle (BEV),Eligibility unknown as battery range has not been researched,0,0,POINT (-122.03646 47.534065),-122.03646,47.534065
1G1FZ6S09K,King,Mercer Island,WA,98040,2019,CHEVROLET,BOLT EV,Battery Electric Vehicle (BEV),Clean Alternative Fuel Vehicle Eligible,238,0,POINT (-122.2377542 47.582905),-122.2377542,47.582905
1G1FZ6S00K,San Juan,Eastsound,WA,98245,2019,CHEVROLET,BOLT EV,Battery Electric Vehicle (BEV),Clean Alternative Fuel Vehicle Eligible,238,0,POINT (-122.907229 48.7016716),-122.907229,48.7016716
KNDCM3LD4M,Grays Harbor,Ocean Shores,WA,98569,2021,KIA,NIRO,Plug-in Hybrid Electric Vehicle (PHEV),Not eligible due to low battery range,26,0,POINT (-124.1599804 47.0075271),-124.1599804,47.0075271
KM8KNDAF3N,King,Seattle,WA,98178,2022,HYUNDAI,IONIQ 5,Battery Electric Vehicle (BEV),Eligibility unknown as battery range has not been researched,0,0,POINT (-122.234385 47.494545),-122.234385,47.494545
KMHM34ACXP,Kitsap,Port Orchard,WA,98367,2023,HYUNDAI,IONIQ 6,Battery Electric Vehicle (BEV),Eligibility unknown as battery range has not been researched,0,0,POINT (-122.6847073 47.50524),-122.6847073,47.50524
JTDKARFP3H,King,Seattle,WA,98117,2017,TOYOTA,PRIUS PRIME,Plug-in Hybrid Electric Vehicle (PHEV),Not eligible due to low battery range,25,0,POINT (-122.37275 47.68968),-122.37275,47.68968
KNDCM3LDXK,Whatcom,Bellingham,WA,98226,2019,KIA,NIRO,Plug-in Hybrid Electric Vehicle (PHEV),Not eligible due to low battery range,26,0,POINT (-122.45493 48.76809),-122.45493,48.76809
W1N9M1DB9N,Benton,Kennewick,WA,99338,2022,MERCEDES-BENZ,EQB-CLASS,Battery Electric Vehicle (BEV),Eligibility unknown as battery range has not been researched,0,0,POINT (-119.1973001 46.1911488),-119.1973001,46.1911488
5YJYGDEE6M,King,Seattle,WA,98115,2021,TESLA,MODEL Y,Battery Electric Vehicle (BEV),Eligibility unknown as battery range has not been researched,0,0,POINT (-122.3185 47.67949),-122.3185,47.67949
1N4AZ0CP8F,Pierce,Tacoma,WA,98408,2015,NISSAN,LEAF,Battery Electric Vehicle (BEV),Clean Alternative Fuel Vehicle Eligible,84,0,POINT (-122.438105 47.20322),-122.438105,47.20322
2C4RC1S75P,King,Renton,WA,98057,2023,CHRYSLER,PACIFICA,Plug-in Hybrid Electric Vehicle (PHEV),Clean Alternative Fuel Vehicle Eligible,32,0,POINT (-122.21024 47.4797047),-122.21024,47.4797047
